{"01001": {"bei": 56.3, "bp": 34.0, "t": 0.12, "s": 0.93, "p": 0.22, "c": 1.0, "pop": 58761, "cpop": 13766, "lat": 32.4998, "lon": -86.4992, "tsys": 78.1, "pw": "direct", "name": "Autauga County", "st": "AL"}, "01003": {"bei": 48.8, "bp": 23.1, "t": 0.05, "s": 0.74, "p": 0.8, "c": 0.52, "pop": 233420, "cpop": 49396, "lat": 30.5424, "lon": -87.7648, "tsys": 43.8, "pw": "direct", "name": "Baldwin County", "st": "AL"}, "01005": {"bei": 89.3, "bp": 83.0, "t": 1.0, "s": 0.96, "p": 0.51, "c": 1.0, "pop": 24877, "cpop": 5151, "lat": 31.8563, "lon": -85.3283, "tsys": 480.0, "pw": "transfer", "name": "Barbour County", "st": "AL"}, "01007": {"bei": 37.4, "bp": 16.5, "t": 0.06, "s": 0.81, "p": 0.09, "c": 0.55, "pop": 22251, "cpop": 4715, "lat": 33.0311, "lon": -87.1427, "tsys": 47.8, "pw": "direct", "name": "Bibb County", "st": "AL"}, "01009": {"bei": 37.1, "bp": 16.3, "t": 0.06, "s": 0.81, "p": 0.07, "c": 0.55, "pop": 59077, "cpop": 13564, "lat": 33.9559, "lon": -86.5902, "tsys": 48.6, "pw": "direct", "name": "Blount County", "st": "AL"}, "01011": {"bei": 87.0, "bp": 78.0, "t": 1.0, "s": 0.96, "p": 0.4, "c": 1.0, "pop": 10328, "cpop": 2175, "lat": 32.1317, "lon": -85.6948, "tsys": 480.0, "pw": "transfer", "name": "Bullock County", "st": "AL"}, "01013": {"bei": 87.5, "bp": 79.1, "t": 1.0, "s": 0.96, "p": 0.42, "c": 1.0, "pop": 18981, "cpop": 4234, "lat": 31.7661, "lon": -86.6554, "tsys": 480.0, "pw": "transfer", "name": "Butler County", "st": "AL"}, "01015": {"bei": 56.6, "bp": 35.6, "t": 0.11, "s": 1.0, "p": 0.17, "c": 1.0, "pop": 116162, "cpop": 24599, "lat": 33.7327, "lon": -85.8176, "tsys": 70.7, "pw": "direct", "name": "Calhoun County", "st": "AL"}, "01017": {"bei": 58.2, "bp": 41.2, "t": 0.13, "s": 0.96, "p": 0.26, "c": 1.0, "pop": 34612, "cpop": 7191, "lat": 32.8558, "lon": -85.2811, "tsys": 83.1, "pw": "direct", "name": "Chambers County", "st": "AL"}, "01019": {"bei": 56.8, "bp": 36.4, "t": 0.17, "s": 0.93, "p": 0.19, "c": 1.0, "pop": 25069, "cpop": 4726, "lat": 34.1724, "lon": -85.6223, "tsys": 98.4, "pw": "direct", "name": "Cherokee County", "st": "AL"}, "01021": {"bei": 38.4, "bp": 17.0, "t": 0.07, "s": 0.81, "p": 0.11, "c": 0.55, "pop": 45140, "cpop": 10705, "lat": 32.8744, "lon": -86.6905, "tsys": 55.1, "pw": "direct", "name": "Chilton County", "st": "AL"}, "01023": {"bei": 67.0, "bp": 65.5, "t": 0.25, "s": 1.0, "p": 0.47, "c": 1.0, "pop": 12669, "cpop": 2526, "lat": 32.0307, "lon": -88.2604, "tsys": 137.5, "pw": "direct", "name": "Choctaw County", "st": "AL"}, "01025": {"bei": 65.0, "bp": 62.3, "t": 0.16, "s": 1.0, "p": 0.5, "c": 1.0, "pop": 23058, "cpop": 5075, "lat": 31.6552, "lon": -87.8093, "tsys": 96.8, "pw": "direct", "name": "Clarke County", "st": "AL"}, "01027": {"bei": 57.5, "bp": 38.3, "t": 0.14, "s": 1.0, "p": 0.17, "c": 1.0, "pop": 14209, "cpop": 2910, "lat": 33.2892, "lon": -85.8407, "tsys": 85.6, "pw": "direct", "name": "Clay County", "st": "AL"}, "01029": {"bei": 55.5, "bp": 31.9, "t": 0.08, "s": 1.0, "p": 0.15, "c": 1.0, "pop": 15144, "cpop": 3446, "lat": 33.6516, "lon": -85.5147, "tsys": 60.3, "pw": "direct", "name": "Cleburne County", "st": "AL"}, "01031": {"bei": 90.6, "bp": 85.6, "t": 1.0, "s": 0.96, "p": 0.57, "c": 1.0, "pop": 53559, "cpop": 12670, "lat": 31.3536, "lon": -85.9071, "tsys": 480.0, "pw": "transfer", "name": "Coffee County", "st": "AL"}, "01033": {"bei": 62.1, "bp": 55.6, "t": 0.18, "s": 1.0, "p": 0.33, "c": 1.0, "pop": 57270, "cpop": 11977, "lat": 34.7198, "lon": -87.6857, "tsys": 106.0, "pw": "direct", "name": "Colbert County", "st": "AL"}, "01035": {"bei": 64.3, "bp": 60.7, "t": 0.13, "s": 1.0, "p": 0.52, "c": 1.0, "pop": 11576, "cpop": 2368, "lat": 31.4146, "lon": -86.9837, "tsys": 81.1, "pw": "direct", "name": "Conecuh County", "st": "AL"}, "01037": {"bei": 55.1, "bp": 30.6, "t": 0.11, "s": 0.96, "p": 0.14, "c": 1.0, "pop": 10329, "cpop": 1658, "lat": 32.9368, "lon": -86.2056, "tsys": 70.5, "pw": "direct", "name": "Coosa County", "st": "AL"}, "01039": {"bei": 91.3, "bp": 86.6, "t": 1.0, "s": 1.0, "p": 0.56, "c": 1.0, "pop": 37542, "cpop": 8227, "lat": 31.2881, "lon": -86.4097, "tsys": 480.0, "pw": "transfer", "name": "Covington County", "st": "AL"}, "01041": {"bei": 87.9, "bp": 79.9, "t": 1.0, "s": 0.96, "p": 0.44, "c": 1.0, "pop": 13205, "cpop": 3020, "lat": 31.7493, "lon": -86.2973, "tsys": 480.0, "pw": "transfer", "name": "Crenshaw County", "st": "AL"}, "01043": {"bei": 53.0, "bp": 26.4, "t": 0.05, "s": 0.96, "p": 0.11, "c": 1.0, "pop": 88284, "cpop": 19672, "lat": 34.1569, "lon": -86.8331, "tsys": 47.2, "pw": "direct", "name": "Cullman County", "st": "AL"}, "01045": {"bei": 89.9, "bp": 84.1, "t": 1.0, "s": 0.93, "p": 0.59, "c": 1.0, "pop": 49455, "cpop": 11403, "lat": 31.3875, "lon": -85.64, "tsys": 480.0, "pw": "transfer", "name": "Dale County", "st": "AL"}, "01047": {"bei": 59.4, "bp": 46.8, "t": 0.18, "s": 0.96, "p": 0.24, "c": 1.0, "pop": 38326, "cpop": 9038, "lat": 32.4158, "lon": -87.0295, "tsys": 106.6, "pw": "direct", "name": "Dallas County", "st": "AL"}, "01049": {"bei": 59.1, "bp": 45.5, "t": 0.16, "s": 0.96, "p": 0.26, "c": 1.0, "pop": 71680, "cpop": 17146, "lat": 34.4467, "lon": -85.8175, "tsys": 96.4, "pw": "direct", "name": "DeKalb County", "st": "AL"}, "01051": {"bei": 57.1, "bp": 37.1, "t": 0.14, "s": 0.93, "p": 0.23, "c": 1.0, "pop": 87694, "cpop": 19063, "lat": 32.5585, "lon": -86.2319, "tsys": 88.3, "pw": "direct", "name": "Elmore County", "st": "AL"}, "01053": {"bei": 65.2, "bp": 62.7, "t": 0.1, "s": 1.0, "p": 0.61, "c": 1.0, "pop": 36755, "cpop": 8335, "lat": 31.1222, "lon": -87.2521, "tsys": 68.1, "pw": "direct", "name": "Escambia County", "st": "AL"}, "01055": {"bei": 55.7, "bp": 32.4, "t": 0.08, "s": 1.0, "p": 0.16, "c": 1.0, "pop": 103348, "cpop": 22164, "lat": 34.0108, "lon": -86.0227, "tsys": 59.6, "pw": "direct", "name": "Etowah County", "st": "AL"}, "01057": {"bei": 57.7, "bp": 39.3, "t": 0.15, "s": 1.0, "p": 0.17, "c": 1.0, "pop": 16297, "cpop": 3436, "lat": 33.7058, "lon": -87.7807, "tsys": 89.2, "pw": "direct", "name": "Fayette County", "st": "AL"}, "01059": {"bei": 61.3, "bp": 53.0, "t": 0.19, "s": 1.0, "p": 0.28, "c": 1.0, "pop": 32011, "cpop": 7920, "lat": 34.4684, "lon": -87.7743, "tsys": 108.2, "pw": "direct", "name": "Franklin County", "st": "AL"}, "01061": {"bei": 91.2, "bp": 86.5, "t": 1.0, "s": 0.93, "p": 0.65, "c": 1.0, "pop": 26647, "cpop": 5834, "lat": 31.0855, "lon": -85.7857, "tsys": 480.0, "pw": "transfer", "name": "Geneva County", "st": "AL"}, "01063": {"bei": 59.5, "bp": 47.2, "t": 0.15, "s": 1.0, "p": 0.26, "c": 1.0, "pop": 7706, "cpop": 1696, "lat": 32.8314, "lon": -87.944, "tsys": 88.8, "pw": "direct", "name": "Greene County", "st": "AL"}, "01065": {"bei": 59.5, "bp": 47.3, "t": 0.18, "s": 1.0, "p": 0.21, "c": 1.0, "pop": 14742, "cpop": 3454, "lat": 32.769, "lon": -87.6237, "tsys": 102.8, "pw": "direct", "name": "Hale County", "st": "AL"}, "01067": {"bei": 90.3, "bp": 85.1, "t": 1.0, "s": 0.93, "p": 0.61, "c": 1.0, "pop": 17282, "cpop": 3517, "lat": 31.4672, "lon": -85.2615, "tsys": 480.0, "pw": "transfer", "name": "Henry County", "st": "AL"}, "01069": {"bei": 90.2, "bp": 84.8, "t": 1.0, "s": 0.88, "p": 0.66, "c": 1.0, "pop": 107040, "cpop": 24470, "lat": 31.2004, "lon": -85.394, "tsys": 480.0, "pw": "transfer", "name": "Houston County", "st": "AL"}, "01071": {"bei": 84.8, "bp": 74.0, "t": 1.0, "s": 0.93, "p": 0.33, "c": 1.0, "pop": 52618, "cpop": 10852, "lat": 34.7357, "lon": -85.9619, "tsys": 480.0, "pw": "transfer", "name": "Jackson County", "st": "AL"}, "01073": {"bei": 9.6, "bp": 5.7, "t": 0.0, "s": 0.38, "p": 0.0, "c": 0.0, "pop": 672265, "cpop": 152346, "lat": 33.5167, "lon": -86.8141, "tsys": 3.2, "pw": "direct", "name": "Jefferson County", "st": "AL"}, "01075": {"bei": 60.7, "bp": 51.4, "t": 0.19, "s": 1.0, "p": 0.25, "c": 1.0, "pop": 13885, "cpop": 3026, "lat": 33.7752, "lon": -88.1046, "tsys": 110.3, "pw": "direct", "name": "Lamar County", "st": "AL"}, "01077": {"bei": 64.0, "bp": 60.3, "t": 0.24, "s": 1.0, "p": 0.34, "c": 1.0, "pop": 94329, "cpop": 18256, "lat": 34.8651, "lon": -87.6088, "tsys": 134.2, "pw": "direct", "name": "Lauderdale County", "st": "AL"}, "01079": {"bei": 57.9, "bp": 40.1, "t": 0.13, "s": 0.96, "p": 0.24, "c": 1.0, "pop": 33116, "cpop": 7172, "lat": 34.5308, "lon": -87.2706, "tsys": 84.0, "pw": "direct", "name": "Lawrence County", "st": "AL"}, "01081": {"bei": 84.8, "bp": 73.9, "t": 1.0, "s": 0.93, "p": 0.33, "c": 1.0, "pop": 175126, "cpop": 36525, "lat": 32.5928, "lon": -85.3608, "tsys": 480.0, "pw": "transfer", "name": "Lee County", "st": "AL"}, "01083": {"bei": 58.2, "bp": 41.3, "t": 0.14, "s": 0.93, "p": 0.3, "c": 1.0, "pop": 104199, "cpop": 23004, "lat": 34.7997, "lon": -86.9255, "tsys": 85.3, "pw": "direct", "name": "Limestone County", "st": "AL"}, "01085": {"bei": 60.1, "bp": 49.1, "t": 0.19, "s": 0.93, "p": 0.32, "c": 1.0, "pop": 10153, "cpop": 2237, "lat": 32.1493, "lon": -86.6223, "tsys": 108.4, "pw": "direct", "name": "Lowndes County", "st": "AL"}, "01087": {"bei": 84.7, "bp": 73.9, "t": 1.0, "s": 0.93, "p": 0.33, "c": 1.0, "pop": 19198, "cpop": 3179, "lat": 32.4249, "lon": -85.7181, "tsys": 480.0, "pw": "transfer", "name": "Macon County", "st": "AL"}, "01089": {"bei": 57.2, "bp": 37.5, "t": 0.15, "s": 0.88, "p": 0.28, "c": 1.0, "pop": 389781, "cpop": 83734, "lat": 34.7451, "lon": -86.6171, "tsys": 93.3, "pw": "direct", "name": "Madison County", "st": "AL"}, "01091": {"bei": 66.3, "bp": 64.5, "t": 0.32, "s": 1.0, "p": 0.34, "c": 1.0, "pop": 19180, "cpop": 4350, "lat": 32.3283, "lon": -87.8131, "tsys": 167.4, "pw": "direct", "name": "Marengo County", "st": "AL"}, "01093": {"bei": 58.9, "bp": 44.4, "t": 0.14, "s": 1.0, "p": 0.23, "c": 1.0, "pop": 29203, "cpop": 6153, "lat": 34.117, "lon": -87.8651, "tsys": 87.2, "pw": "direct", "name": "Marion County", "st": "AL"}, "01095": {"bei": 57.3, "bp": 37.7, "t": 0.15, "s": 0.96, "p": 0.19, "c": 1.0, "pop": 97923, "cpop": 24723, "lat": 34.3105, "lon": -86.2958, "tsys": 90.5, "pw": "direct", "name": "Marshall County", "st": "AL"}, "01097": {"bei": 38.1, "bp": 16.8, "t": 0.0, "s": 0.69, "p": 0.79, "c": 0.2, "pop": 413878, "cpop": 96226, "lat": 30.6855, "lon": -88.1759, "tsys": 15.5, "pw": "direct", "name": "Mobile County", "st": "AL"}, "01099": {"bei": 64.7, "bp": 61.7, "t": 0.15, "s": 1.0, "p": 0.51, "c": 1.0, "pop": 19816, "cpop": 4188, "lat": 31.497, "lon": -87.3775, "tsys": 89.9, "pw": "direct", "name": "Monroe County", "st": "AL"}, "01101": {"bei": 56.7, "bp": 36.1, "t": 0.14, "s": 0.88, "p": 0.28, "c": 1.0, "pop": 228132, "cpop": 53805, "lat": 32.3458, "lon": -86.2334, "tsys": 85.5, "pw": "direct", "name": "Montgomery County", "st": "AL"}, "01103": {"bei": 56.1, "bp": 33.4, "t": 0.12, "s": 0.93, "p": 0.22, "c": 1.0, "pop": 123102, "cpop": 28181, "lat": 34.5155, "lon": -86.9317, "tsys": 76.8, "pw": "direct", "name": "Morgan County", "st": "AL"}, "01105": {"bei": 59.0, "bp": 45.0, "t": 0.16, "s": 1.0, "p": 0.22, "c": 1.0, "pop": 8479, "cpop": 1792, "lat": 32.6144, "lon": -87.3746, "tsys": 94.7, "pw": "direct", "name": "Perry County", "st": "AL"}, "01107": {"bei": 59.8, "bp": 48.3, "t": 0.17, "s": 1.0, "p": 0.23, "c": 1.0, "pop": 18925, "cpop": 3653, "lat": 33.3142, "lon": -88.0667, "tsys": 101.2, "pw": "direct", "name": "Pickens County", "st": "AL"}, "01109": {"bei": 88.2, "bp": 80.9, "t": 1.0, "s": 0.96, "p": 0.46, "c": 1.0, "pop": 32997, "cpop": 6220, "lat": 31.786, "lon": -85.9437, "tsys": 480.0, "pw": "transfer", "name": "Pike County", "st": "AL"}, "01111": {"bei": 59.0, "bp": 44.8, "t": 0.18, "s": 1.0, "p": 0.19, "c": 1.0, "pop": 22179, "cpop": 4627, "lat": 33.2609, "lon": -85.4189, "tsys": 102.8, "pw": "direct", "name": "Randolph County", "st": "AL"}, "01113": {"bei": 83.8, "bp": 73.0, "t": 1.0, "s": 0.88, "p": 0.34, "c": 1.0, "pop": 58849, "cpop": 14160, "lat": 32.4086, "lon": -85.054, "tsys": 480.0, "pw": "transfer", "name": "Russell County", "st": "AL"}, "01115": {"bei": 20.1, "bp": 8.6, "t": 0.04, "s": 0.63, "p": 0.04, "c": 0.09, "pop": 91719, "cpop": 20453, "lat": 33.6546, "lon": -86.3756, "tsys": 42.3, "pw": "direct", "name": "St. Clair County", "st": "AL"}, "01117": {"bei": 19.3, "bp": 8.4, "t": 0.04, "s": 0.63, "p": 0.0, "c": 0.09, "pop": 223916, "cpop": 51063, "lat": 33.2887, "lon": -86.739, "tsys": 41.5, "pw": "direct", "name": "Shelby County", "st": "AL"}, "01119": {"bei": 62.7, "bp": 56.8, "t": 0.19, "s": 1.0, "p": 0.35, "c": 1.0, "pop": 12196, "cpop": 2303, "lat": 32.5741, "lon": -88.1964, "tsys": 108.2, "pw": "direct", "name": "Sumter County", "st": "AL"}, "01121": {"bei": 38.4, "bp": 17.0, "t": 0.09, "s": 0.81, "p": 0.09, "c": 0.55, "pop": 81105, "cpop": 16771, "lat": 33.3703, "lon": -86.164, "tsys": 62.9, "pw": "direct", "name": "Talladega County", "st": "AL"}, "01123": {"bei": 57.7, "bp": 39.1, "t": 0.14, "s": 0.96, "p": 0.22, "c": 1.0, "pop": 41251, "cpop": 8410, "lat": 32.8508, "lon": -85.8515, "tsys": 85.8, "pw": "direct", "name": "Tallapoosa County", "st": "AL"}, "01125": {"bei": 54.5, "bp": 28.9, "t": 0.07, "s": 1.0, "p": 0.12, "c": 1.0, "pop": 231558, "cpop": 47215, "lat": 33.2165, "lon": -87.5188, "tsys": 55.3, "pw": "direct", "name": "Tuscaloosa County", "st": "AL"}, "01127": {"bei": 36.6, "bp": 16.1, "t": 0.04, "s": 0.81, "p": 0.07, "c": 0.55, "pop": 64978, "cpop": 14409, "lat": 33.8318, "lon": -87.2551, "tsys": 39.9, "pw": "direct", "name": "Walker County", "st": "AL"}, "01129": {"bei": 66.6, "bp": 65.0, "t": 0.15, "s": 1.0, "p": 0.6, "c": 1.0, "pop": 15434, "cpop": 3180, "lat": 31.4151, "lon": -88.176, "tsys": 91.3, "pw": "direct", "name": "Washington County", "st": "AL"}, "01131": {"bei": 66.2, "bp": 64.5, "t": 0.29, "s": 1.0, "p": 0.37, "c": 1.0, "pop": 10441, "cpop": 2397, "lat": 32.0123, "lon": -87.3502, "tsys": 156.6, "pw": "direct", "name": "Wilcox County", "st": "AL"}, "01133": {"bei": 57.4, "bp": 38.2, "t": 0.14, "s": 1.0, "p": 0.16, "c": 1.0, "pop": 23655, "cpop": 4785, "lat": 34.1636, "lon": -87.3988, "tsys": 85.6, "pw": "direct", "name": "Winston County", "st": "AL"}, "02013": {"bei": 100.0, "bp": 97.7, "t": 1.0, "s": 1.0, "p": 1.0, "c": 1.0, "pop": 3407, "cpop": 417, "lat": 55.5141, "lon": -161.7284, "tsys": 480.0, "pw": "transfer", "name": "Aleutians East Borough", "st": "AK"}, "02016": {"bei": 100.0, "bp": 97.7, "t": 1.0, "s": 1.0, "p": 1.0, "c": 1.0, "pop": 5219, "cpop": 887, "lat": 53.3401, "lon": -108.5633, "tsys": 480.0, "pw": "transfer", "name": "Aleutians West Census Area", "st": "AK"}, "02020": {"bei": 93.8, "bp": 90.8, "t": 1.0, "s": 0.75, "p": 1.0, "c": 1.0, "pop": 290674, "cpop": 69388, "lat": 61.1899, "lon": -149.7846, "tsys": 480.0, "pw": "transfer", "name": "Anchorage Municipality", "st": "AK"}, "02050": {"bei": 100.0, "bp": 97.7, "t": 1.0, "s": 1.0, "p": 1.0, "c": 1.0, "pop": 18538, "cpop": 6453, "lat": 60.6254, "lon": -161.9525, "tsys": 480.0, "pw": "transfer", "name": "Bethel Census Area", "st": "AK"}, "02060": {"bei": 100.0, "bp": 97.7, "t": 1.0, "s": 1.0, "p": 1.0, "c": 1.0, "pop": 854, "cpop": 163, "lat": 58.7305, "lon": -156.9945, "tsys": 480.0, "pw": "transfer", "name": "Bristol Bay Borough", "st": "AK"}, "02063": {"bei": 100.0, "bp": 97.7, "t": 1.0, "s": 1.0, "p": 1.0, "c": 1.0, "pop": 7000, "cpop": 1519, "lat": 60.6111, "lon": -146.4564, "tsys": 480.0, "pw": "transfer"}, "02066": {"bei": 100.0, "bp": 97.7, "t": 1.0, "s": 1.0, "p": 1.0, "c": 1.0, "pop": 2614, "cpop": 692, "lat": 62.0345, "lon": -143.9222, "tsys": 480.0, "pw": "transfer"}, "02068": {"bei": 100.0, "bp": 97.7, "t": 1.0, "s": 1.0, "p": 1.0, "c": 1.0, "pop": 2101, "cpop": 272, "lat": 63.682, "lon": -150.027, "tsys": 480.0, "pw": "transfer", "name": "Denali Borough", "st": "AK"}, "02070": {"bei": 100.0, "bp": 97.7, "t": 1.0, "s": 1.0, "p": 1.0, "c": 1.0, "pop": 4854, "cpop": 1466, "lat": 59.3175, "lon": -158.4533, "tsys": 480.0, "pw": "transfer", "name": "Dillingham Census Area", "st": "AK"}, "02090": {"bei": 100.0, "bp": 97.7, "t": 1.0, "s": 1.0, "p": 1.0, "c": 1.0, "pop": 96299, "cpop": 22959, "lat": 64.8061, "lon": -147.559, "tsys": 480.0, "pw": "transfer", "name": "Fairbanks North Star Borough", "st": "AK"}, "02100": {"bei": 100.0, "bp": 97.7, "t": 1.0, "s": 1.0, "p": 1.0, "c": 1.0, "pop": 2079, "cpop": 628, "lat": 59.0984, "lon": -135.5758, "tsys": 480.0, "pw": "transfer", "name": "Haines Borough", "st": "AK"}, "02105": {"bei": 100.0, "bp": 97.7, "t": 1.0, "s": 1.0, "p": 1.0, "c": 1.0, "pop": 2329, "cpop": 310, "lat": 58.0735, "lon": -135.513, "tsys": 480.0, "pw": "transfer", "name": "Hoonah-Angoon Census Area", "st": "AK"}, "02110": {"bei": 100.0, "bp": 97.7, "t": 1.0, "s": 1.0, "p": 1.0, "c": 1.0, "pop": 32108, "cpop": 6625, "lat": 58.4027, "lon": -134.4667, "tsys": 480.0, "pw": "transfer", "name": "Juneau City and Borough", "st": "AK"}, "02122": {"bei": 100.0, "bp": 97.7, "t": 1.0, "s": 1.0, "p": 1.0, "c": 1.0, "pop": 59235, "cpop": 13074, "lat": 60.2388, "lon": -151.0581, "tsys": 480.0, "pw": "transfer", "name": "Kenai Peninsula Borough", "st": "AK"}, "02130": {"bei": 100.0, "bp": 97.7, "t": 1.0, "s": 1.0, "p": 1.0, "c": 1.0, "pop": 13910, "cpop": 2928, "lat": 55.3671, "lon": -131.6307, "tsys": 480.0, "pw": "transfer", "name": "Ketchikan Gateway Borough", "st": "AK"}, "02150": {"bei": 100.0, "bp": 97.7, "t": 1.0, "s": 1.0, "p": 1.0, "c": 1.0, "pop": 13065, "cpop": 3135, "lat": 57.7297, "lon": -152.6425, "tsys": 480.0, "pw": "transfer", "name": "Kodiak Island Borough", "st": "AK"}, "02158": {"bei": 100.0, "bp": 97.7, "t": 1.0, "s": 1.0, "p": 1.0, "c": 1.0, "pop": 8372, "cpop": 3446, "lat": 62.2836, "lon": -163.1902, "tsys": 480.0, "pw": "transfer", "name": "Kusilvak Census Area", "st": "AK"}, "02164": {"bei": 100.0, "bp": 97.7, "t": 1.0, "s": 1.0, "p": 1.0, "c": 1.0, "pop": 999, "cpop": 255, "lat": 58.1085, "lon": -156.4134, "tsys": 480.0, "pw": "transfer", "name": "Lake and Peninsula Borough", "st": "AK"}, "02170": {"bei": 98.1, "bp": 94.2, "t": 1.0, "s": 0.93, "p": 1.0, "c": 1.0, "pop": 108661, "cpop": 28387, "lat": 61.6081, "lon": -149.3939, "tsys": 480.0, "pw": "transfer", "name": "Matanuska-Susitna Borough", "st": "AK"}, "02180": {"bei": 100.0, "bp": 97.7, "t": 1.0, "s": 1.0, "p": 1.0, "c": 1.0, "pop": 10018, "cpop": 3411, "lat": 64.7079, "lon": -164.6934, "tsys": 480.0, "pw": "transfer", "name": "Nome Census Area", "st": "AK"}, "02185": {"bei": 100.0, "bp": 97.7, "t": 1.0, "s": 1.0, "p": 1.0, "c": 1.0, "pop": 10924, "cpop": 2493, "lat": 70.4818, "lon": -153.9229, "tsys": 480.0, "pw": "transfer", "name": "North Slope Borough", "st": "AK"}, "02188": {"bei": 100.0, "bp": 97.7, "t": 1.0, "s": 1.0, "p": 1.0, "c": 1.0, "pop": 7682, "cpop": 2783, "lat": 66.9236, "lon": -160.9246, "tsys": 480.0, "pw": "transfer", "name": "Northwest Arctic Borough", "st": "AK"}, "02195": {"bei": 100.0, "bp": 97.7, "t": 1.0, "s": 1.0, "p": 1.0, "c": 1.0, "pop": 3374, "cpop": 606, "lat": 57.1125, "lon": -133.0086, "tsys": 480.0, "pw": "transfer", "name": "Petersburg Borough", "st": "AK"}, "02198": {"bei": 100.0, "bp": 97.7, "t": 1.0, "s": 1.0, "p": 1.0, "c": 1.0, "pop": 5799, "cpop": 1244, "lat": 55.438, "lon": -132.6391, "tsys": 480.0, "pw": "transfer", "name": "Prince of Wales-Hyder Census Area", "st": "AK"}, "02220": {"bei": 100.0, "bp": 97.7, "t": 1.0, "s": 1.0, "p": 1.0, "c": 1.0, "pop": 8462, "cpop": 1709, "lat": 57.0173, "lon": -135.2514, "tsys": 480.0, "pw": "transfer", "name": "Sitka City and Borough", "st": "AK"}, "02230": {"bei": 100.0, "bp": 97.7, "t": 1.0, "s": 1.0, "p": 1.0, "c": 1.0, "pop": 1303, "cpop": 207, "lat": 59.5604, "lon": -135.3383, "tsys": 480.0, "pw": "transfer", "name": "Skagway Municipality", "st": "AK"}, "02240": {"bei": 100.0, "bp": 97.7, "t": 1.0, "s": 1.0, "p": 1.0, "c": 1.0, "pop": 6888, "cpop": 1845, "lat": 63.8807, "lon": -144.4364, "tsys": 480.0, "pw": "transfer", "name": "Southeast Fairbanks Census Area", "st": "AK"}, "02275": {"bei": 100.0, "bp": 97.7, "t": 1.0, "s": 1.0, "p": 1.0, "c": 1.0, "pop": 2134, "cpop": 472, "lat": 56.1808, "lon": -132.0268, "tsys": 480.0, "pw": "transfer", "name": "Wrangell City and Borough", "st": "AK"}, "02282": {"bei": 100.0, "bp": 97.7, "t": 1.0, "s": 1.0, "p": 1.0, "c": 1.0, "pop": 564, "cpop": 105, "lat": 60.0175, "lon": -140.4168, "tsys": 480.0, "pw": "transfer", "name": "Yakutat City and Borough", "st": "AK"}, "02290": {"bei": 100.0, "bp": 97.7, "t": 1.0, "s": 1.0, "p": 1.0, "c": 1.0, "pop": 5355, "cpop": 1459, "lat": 65.4733, "lon": -152.3708, "tsys": 480.0, "pw": "transfer", "name": "Yukon-Koyukuk Census Area", "st": "AK"}, "04001": {"bei": 91.8, "bp": 87.6, "t": 1.0, "s": 1.0, "p": 0.59, "c": 1.0, "pop": 66054, "cpop": 17525, "lat": 35.5664, "lon": -109.4102, "tsys": 480.0, "pw": "transfer", "name": "Apache County", "st": "AZ"}, "04003": {"bei": 63.4, "bp": 58.7, "t": 0.31, "s": 1.0, "p": 0.2, "c": 1.0, "pop": 125504, "cpop": 26498, "lat": 31.617, "lon": -110.0617, "tsys": 165.9, "pw": "direct", "name": "Cochise County", "st": "AZ"}, "04005": {"bei": 88.4, "bp": 81.2, "t": 1.0, "s": 0.93, "p": 0.51, "c": 1.0, "pop": 144705, "cpop": 28779, "lat": 35.4868, "lon": -111.6038, "tsys": 480.0, "pw": "transfer", "name": "Coconino County", "st": "AZ"}, "04007": {"bei": 62.8, "bp": 57.3, "t": 0.29, "s": 1.0, "p": 0.2, "c": 1.0, "pop": 53419, "cpop": 10347, "lat": 33.8473, "lon": -110.9811, "tsys": 156.7, "pw": "direct", "name": "Gila County", "st": "AZ"}, "04009": {"bei": 62.2, "bp": 55.8, "t": 0.23, "s": 1.0, "p": 0.27, "c": 1.0, "pop": 38453, "cpop": 10108, "lat": 32.8732, "lon": -109.7489, "tsys": 125.8, "pw": "direct", "name": "Graham County", "st": "AZ"}, "04011": {"bei": 68.1, "bp": 66.9, "t": 0.34, "s": 1.0, "p": 0.4, "c": 1.0, "pop": 9483, "cpop": 2589, "lat": 33.0643, "lon": -109.2623, "tsys": 177.4, "pw": "direct", "name": "Greenlee County", "st": "AZ"}, "04012": {"bei": 89.0, "bp": 82.4, "t": 1.0, "s": 1.0, "p": 0.45, "c": 1.0, "pop": 16681, "cpop": 2708, "lat": 33.8721, "lon": -114.1854, "tsys": 480.0, "pw": "transfer", "name": "La Paz County", "st": "AZ"}, "04013": {"bei": 0.0, "bp": 1.0, "t": 0.0, "s": 0.0, "p": 0.0, "c": 0.0, "pop": 4430871, "cpop": 1024140, "lat": 33.4896, "lon": -112.0456, "tsys": 7.4, "pw": "direct", "name": "Maricopa County", "st": "AZ"}, "04015": {"bei": 66.4, "bp": 64.7, "t": 0.35, "s": 1.0, "p": 0.3, "c": 1.0, "pop": 214229, "cpop": 35434, "lat": 35.0371, "lon": -114.236, "tsys": 180.8, "pw": "direct", "name": "Mohave County", "st": "AZ"}, "04017": {"bei": 90.3, "bp": 85.1, "t": 1.0, "s": 1.0, "p": 0.52, "c": 1.0, "pop": 107110, "cpop": 27769, "lat": 34.8852, "lon": -110.2051, "tsys": 480.0, "pw": "transfer", "name": "Navajo County", "st": "AZ"}, "04019": {"bei": 14.2, "bp": 6.7, "t": 0.0, "s": 0.57, "p": 0.0, "c": 0.0, "pop": 1042393, "cpop": 210717, "lat": 32.2158, "lon": -110.9612, "tsys": 6.7, "pw": "direct", "name": "Pima County", "st": "AZ"}, "04021": {"bei": 27.7, "bp": 11.6, "t": 0.1, "s": 0.52, "p": 0.08, "c": 0.4, "pop": 433338, "cpop": 95425, "lat": 33.0689, "lon": -111.6033, "tsys": 70.5, "pw": "direct", "name": "Pinal County", "st": "AZ"}, "04023": {"bei": 55.7, "bp": 32.4, "t": 0.09, "s": 1.0, "p": 0.15, "c": 1.0, "pop": 47838, "cpop": 12601, "lat": 31.4319, "lon": -110.9298, "tsys": 63.9, "pw": "direct", "name": "Santa Cruz County", "st": "AZ"}, "04025": {"bei": 85.3, "bp": 74.4, "t": 1.0, "s": 1.0, "p": 0.27, "c": 1.0, "pop": 237830, "cpop": 37480, "lat": 34.6247, "lon": -112.2908, "tsys": 480.0, "pw": "transfer", "name": "Yavapai County", "st": "AZ"}, "04027": {"bei": 90.8, "bp": 86.0, "t": 1.0, "s": 1.0, "p": 0.54, "c": 1.0, "pop": 204374, "cpop": 51343, "lat": 32.6428, "lon": -114.6035, "tsys": 480.0, "pw": "transfer", "name": "Yuma County", "st": "AZ"}, "05001": {"bei": 57.9, "bp": 39.8, "t": 0.16, "s": 1.0, "p": 0.15, "c": 1.0, "pop": 17024, "cpop": 3901, "lat": 34.3981, "lon": -91.4451, "tsys": 96.5, "pw": "direct", "name": "Arkansas County", "st": "AR"}, "05003": {"bei": 65.6, "bp": 63.4, "t": 0.26, "s": 1.0, "p": 0.38, "c": 1.0, "pop": 19018, "cpop": 4295, "lat": 33.1776, "lon": -91.8902, "tsys": 143.4, "pw": "direct", "name": "Ashley County", "st": "AR"}, "05005": {"bei": 61.8, "bp": 54.6, "t": 0.23, "s": 1.0, "p": 0.24, "c": 1.0, "pop": 41801, "cpop": 7350, "lat": 36.3335, "lon": -92.3788, "tsys": 128.6, "pw": "direct", "name": "Baxter County", "st": "AR"}, "05007": {"bei": 59.6, "bp": 47.5, "t": 0.21, "s": 0.93, "p": 0.25, "c": 1.0, "pop": 286528, "cpop": 73739, "lat": 36.335, "lon": -94.2305, "tsys": 120.3, "pw": "direct", "name": "Benton County", "st": "AR"}, "05009": {"bei": 57.4, "bp": 38.0, "t": 0.12, "s": 1.0, "p": 0.19, "c": 1.0, "pop": 37662, "cpop": 8555, "lat": 36.2713, "lon": -93.0953, "tsys": 76.9, "pw": "direct", "name": "Boone County", "st": "AR"}, "05011": {"bei": 61.0, "bp": 52.0, "t": 0.19, "s": 1.0, "p": 0.26, "c": 1.0, "pop": 10461, "cpop": 2558, "lat": 33.5704, "lon": -92.0972, "tsys": 109.2, "pw": "direct", "name": "Bradley County", "st": "AR"}, "05013": {"bei": 60.4, "bp": 50.6, "t": 0.17, "s": 1.0, "p": 0.27, "c": 1.0, "pop": 4773, "cpop": 892, "lat": 33.5677, "lon": -92.4885, "tsys": 99.8, "pw": "direct", "name": "Calhoun County", "st": "AR"}, "05015": {"bei": 56.5, "bp": 35.4, "t": 0.14, "s": 0.96, "p": 0.17, "c": 1.0, "pop": 28362, "cpop": 6237, "lat": 36.3628, "lon": -93.5628, "tsys": 84.6, "pw": "direct", "name": "Carroll County", "st": "AR"}, "05017": {"bei": 66.0, "bp": 64.1, "t": 0.26, "s": 1.0, "p": 0.41, "c": 1.0, "pop": 10234, "cpop": 2243, "lat": 33.2549, "lon": -91.3269, "tsys": 142.4, "pw": "direct", "name": "Chicot County", "st": "AR"}, "05019": {"bei": 55.2, "bp": 30.8, "t": 0.1, "s": 0.93, "p": 0.2, "c": 1.0, "pop": 21469, "cpop": 4165, "lat": 34.0868, "lon": -93.1286, "tsys": 68.7, "pw": "direct", "name": "Clark County", "st": "AR"}, "05021": {"bei": 68.8, "bp": 67.6, "t": 0.25, "s": 1.0, "p": 0.57, "c": 1.0, "pop": 14537, "cpop": 3043, "lat": 36.3655, "lon": -90.3767, "tsys": 136.9, "pw": "direct", "name": "Clay County", "st": "AR"}, "05023": {"bei": 57.8, "bp": 39.4, "t": 0.15, "s": 1.0, "p": 0.16, "c": 1.0, "pop": 24948, "cpop": 4715, "lat": 35.5122, "lon": -92.022, "tsys": 93.1, "pw": "direct", "name": "Cleburne County", "st": "AR"}, "05025": {"bei": 60.2, "bp": 49.6, "t": 0.23, "s": 1.0, "p": 0.17, "c": 1.0, "pop": 7548, "cpop": 1556, "lat": 33.914, "lon": -92.1971, "tsys": 127.9, "pw": "direct", "name": "Cleveland County", "st": "AR"}, "05027": {"bei": 63.3, "bp": 58.2, "t": 0.17, "s": 1.0, "p": 0.4, "c": 1.0, "pop": 22707, "cpop": 4760, "lat": 33.2568, "lon": -93.2323, "tsys": 101.7, "pw": "direct", "name": "Columbia County", "st": "AR"}, "05029": {"bei": 45.8, "bp": 21.4, "t": 0.07, "s": 0.8, "p": 0.1, "c": 0.87, "pop": 20782, "cpop": 4685, "lat": 35.226, "lon": -92.7259, "tsys": 56.7, "pw": "direct", "name": "Conway County", "st": "AR"}, "05031": {"bei": 61.2, "bp": 52.5, "t": 0.1, "s": 1.0, "p": 0.41, "c": 1.0, "pop": 111038, "cpop": 27699, "lat": 35.8319, "lon": -90.6685, "tsys": 66.2, "pw": "direct", "name": "Craighead County", "st": "AR"}, "05033": {"bei": 62.4, "bp": 56.4, "t": 0.21, "s": 0.96, "p": 0.36, "c": 1.0, "pop": 60593, "cpop": 14557, "lat": 35.4962, "lon": -94.2816, "tsys": 117.3, "pw": "direct", "name": "Crawford County", "st": "AR"}, "05035": {"bei": 27.5, "bp": 11.6, "t": 0.0, "s": 0.38, "p": 0.42, "c": 0.38, "pop": 47945, "cpop": 12991, "lat": 35.1652, "lon": -90.2205, "tsys": 13.5, "pw": "direct", "name": "Crittenden County", "st": "AR"}, "05037": {"bei": 49.3, "bp": 23.4, "t": 0.08, "s": 0.81, "p": 0.31, "c": 0.81, "pop": 16827, "cpop": 4042, "lat": 35.2501, "lon": -90.7717, "tsys": 59.0, "pw": "direct", "name": "Cross County", "st": "AR"}, "05039": {"bei": 57.8, "bp": 39.7, "t": 0.14, "s": 1.0, "p": 0.18, "c": 1.0, "pop": 6472, "cpop": 1314, "lat": 33.8782, "lon": -92.5276, "tsys": 87.0, "pw": "direct", "name": "Dallas County", "st": "AR"}, "05041": {"bei": 68.6, "bp": 67.4, "t": 0.43, "s": 1.0, "p": 0.28, "c": 1.0, "pop": 11285, "cpop": 2852, "lat": 33.7692, "lon": -91.3841, "tsys": 221.2, "pw": "direct", "name": "Desha County", "st": "AR"}, "05043": {"bei": 60.5, "bp": 50.9, "t": 0.17, "s": 1.0, "p": 0.27, "c": 1.0, "pop": 17309, "cpop": 3974, "lat": 33.6032, "lon": -91.777, "tsys": 98.7, "pw": "direct", "name": "Drew County", "st": "AR"}, "05045": {"bei": 34.6, "bp": 15.1, "t": 0.03, "s": 0.59, "p": 0.04, "c": 0.73, "pop": 124611, "cpop": 28137, "lat": 35.103, "lon": -92.4107, "tsys": 34.0, "pw": "direct", "name": "Faulkner County", "st": "AR"}, "05047": {"bei": 87.0, "bp": 77.8, "t": 1.0, "s": 1.0, "p": 0.35, "c": 1.0, "pop": 17160, "cpop": 3879, "lat": 35.4467, "lon": -93.8917, "tsys": 480.0, "pw": "transfer", "name": "Franklin County", "st": "AR"}, "05049": {"bei": 65.0, "bp": 62.5, "t": 0.28, "s": 1.0, "p": 0.34, "c": 1.0, "pop": 12183, "cpop": 2570, "lat": 36.3803, "lon": -91.7856, "tsys": 149.2, "pw": "direct", "name": "Fulton County", "st": "AR"}, "05051": {"bei": 51.2, "bp": 25.0, "t": 0.09, "s": 0.84, "p": 0.13, "c": 1.0, "pop": 100021, "cpop": 19768, "lat": 34.5081, "lon": -93.0925, "tsys": 62.8, "pw": "direct", "name": "Garland County", "st": "AR"}, "05053": {"bei": 41.7, "bp": 18.6, "t": 0.03, "s": 0.72, "p": 0.05, "c": 0.87, "pop": 18022, "cpop": 3906, "lat": 34.3202, "lon": -92.4138, "tsys": 35.8, "pw": "direct", "name": "Grant County", "st": "AR"}, "05055": {"bei": 64.4, "bp": 60.8, "t": 0.16, "s": 1.0, "p": 0.48, "c": 1.0, "pop": 45954, "cpop": 11068, "lat": 36.073, "lon": -90.5218, "tsys": 93.7, "pw": "direct", "name": "Greene County", "st": "AR"}, "05057": {"bei": 62.5, "bp": 56.5, "t": 0.18, "s": 1.0, "p": 0.36, "c": 1.0, "pop": 20037, "cpop": 5053, "lat": 33.6927, "lon": -93.6152, "tsys": 103.0, "pw": "direct", "name": "Hempstead County", "st": "AR"}, "05059": {"bei": 42.5, "bp": 19.0, "t": 0.06, "s": 0.67, "p": 0.11, "c": 0.87, "pop": 33129, "cpop": 6495, "lat": 34.3433, "lon": -92.879, "tsys": 51.3, "pw": "direct", "name": "Hot Spring County", "st": "AR"}, "05061": {"bei": 65.3, "bp": 62.8, "t": 0.26, "s": 1.0, "p": 0.37, "c": 1.0, "pop": 12779, "cpop": 3308, "lat": 33.9908, "lon": -93.932, "tsys": 143.2, "pw": "direct", "name": "Howard County", "st": "AR"}, "05063": {"bei": 60.3, "bp": 50.2, "t": 0.17, "s": 1.0, "p": 0.26, "c": 1.0, "pop": 37910, "cpop": 9038, "lat": 35.756, "lon": -91.5887, "tsys": 100.8, "pw": "direct", "name": "Independence County", "st": "AR"}, "05065": {"bei": 64.4, "bp": 61.0, "t": 0.26, "s": 1.0, "p": 0.33, "c": 1.0, "pop": 13748, "cpop": 2377, "lat": 36.1212, "lon": -91.9183, "tsys": 142.3, "pw": "direct", "name": "Izard County", "st": "AR"}, "05067": {"bei": 59.8, "bp": 48.4, "t": 0.14, "s": 1.0, "p": 0.28, "c": 1.0, "pop": 16784, "cpop": 3269, "lat": 35.6303, "lon": -91.2363, "tsys": 87.2, "pw": "direct", "name": "Jackson County", "st": "AR"}, "05069": {"bei": 44.5, "bp": 20.5, "t": 0.04, "s": 0.8, "p": 0.09, "c": 0.87, "pop": 66934, "cpop": 14390, "lat": 34.2278, "lon": -92.0529, "tsys": 40.3, "pw": "direct", "name": "Jefferson County", "st": "AR"}, "05071": {"bei": 60.2, "bp": 49.7, "t": 0.16, "s": 1.0, "p": 0.28, "c": 1.0, "pop": 25925, "cpop": 6397, "lat": 35.4927, "lon": -93.4764, "tsys": 94.2, "pw": "direct", "name": "Johnson County", "st": "AR"}, "05073": {"bei": 62.9, "bp": 57.6, "t": 0.14, "s": 1.0, "p": 0.43, "c": 1.0, "pop": 6277, "cpop": 1191, "lat": 33.3072, "lon": -93.571, "tsys": 87.2, "pw": "direct", "name": "Lafayette County", "st": "AR"}, "05075": {"bei": 63.2, "bp": 58.0, "t": 0.17, "s": 1.0, "p": 0.4, "c": 1.0, "pop": 16258, "cpop": 3650, "lat": 36.0633, "lon": -91.0663, "tsys": 102.1, "pw": "direct", "name": "Lawrence County", "st": "AR"}, "05077": {"bei": 58.4, "bp": 42.7, "t": 0.09, "s": 1.0, "p": 0.28, "c": 1.0, "pop": 8666, "cpop": 1612, "lat": 34.785, "lon": -90.7859, "tsys": 65.8, "pw": "direct", "name": "Lee County", "st": "AR"}, "05079": {"bei": 57.7, "bp": 39.3, "t": 0.14, "s": 1.0, "p": 0.18, "c": 1.0, "pop": 13016, "cpop": 1913, "lat": 33.9819, "lon": -91.7277, "tsys": 84.2, "pw": "direct", "name": "Lincoln County", "st": "AR"}, "05081": {"bei": 65.2, "bp": 62.6, "t": 0.2, "s": 1.0, "p": 0.47, "c": 1.0, "pop": 12024, "cpop": 2662, "lat": 33.6811, "lon": -94.1937, "tsys": 112.0, "pw": "direct", "name": "Little River County", "st": "AR"}, "05083": {"bei": 63.4, "bp": 58.8, "t": 0.25, "s": 1.0, "p": 0.29, "c": 1.0, "pop": 21247, "cpop": 4486, "lat": 35.2094, "lon": -93.7415, "tsys": 138.8, "pw": "direct", "name": "Logan County", "st": "AR"}, "05085": {"bei": 34.5, "bp": 15.0, "t": 0.03, "s": 0.59, "p": 0.02, "c": 0.73, "pop": 74292, "cpop": 18589, "lat": 34.9052, "lon": -91.9638, "tsys": 38.1, "pw": "direct", "name": "Lonoke County", "st": "AR"}, "05087": {"bei": 60.3, "bp": 50.1, "t": 0.23, "s": 0.93, "p": 0.27, "c": 1.0, "pop": 16737, "cpop": 3922, "lat": 36.0484, "lon": -93.752, "tsys": 126.4, "pw": "direct", "name": "Madison County", "st": "AR"}, "05089": {"bei": 61.1, "bp": 52.3, "t": 0.23, "s": 1.0, "p": 0.21, "c": 1.0, "pop": 16905, "cpop": 3112, "lat": 36.301, "lon": -92.6681, "tsys": 126.9, "pw": "direct", "name": "Marion County", "st": "AR"}, "05091": {"bei": 63.0, "bp": 57.7, "t": 0.11, "s": 1.0, "p": 0.48, "c": 1.0, "pop": 42682, "cpop": 10091, "lat": 33.3946, "lon": -93.9737, "tsys": 74.6, "pw": "direct", "name": "Miller County", "st": "AR"}, "05093": {"bei": 63.4, "bp": 58.7, "t": 0.09, "s": 1.0, "p": 0.54, "c": 1.0, "pop": 40361, "cpop": 10506, "lat": 35.8405, "lon": -89.9999, "tsys": 61.4, "pw": "direct", "name": "Mississippi County", "st": "AR"}, "05095": {"bei": 56.9, "bp": 36.6, "t": 0.11, "s": 1.0, "p": 0.17, "c": 1.0, "pop": 6787, "cpop": 1465, "lat": 34.7659, "lon": -91.2407, "tsys": 74.0, "pw": "direct", "name": "Monroe County", "st": "AR"}, "05097": {"bei": 59.1, "bp": 45.4, "t": 0.17, "s": 0.96, "p": 0.24, "c": 1.0, "pop": 8555, "cpop": 1537, "lat": 34.5419, "lon": -93.6193, "tsys": 101.0, "pw": "direct", "name": "Montgomery County", "st": "AR"}, "05099": {"bei": 61.3, "bp": 52.9, "t": 0.17, "s": 1.0, "p": 0.31, "c": 1.0, "pop": 8292, "cpop": 1863, "lat": 33.7296, "lon": -93.3359, "tsys": 101.1, "pw": "direct", "name": "Nevada County", "st": "AR"}, "05101": {"bei": 62.1, "bp": 55.7, "t": 0.22, "s": 1.0, "p": 0.27, "c": 1.0, "pop": 7243, "cpop": 1408, "lat": 35.9647, "lon": -93.2066, "tsys": 124.1, "pw": "direct", "name": "Newton County", "st": "AR"}, "05103": {"bei": 61.4, "bp": 53.3, "t": 0.19, "s": 1.0, "p": 0.28, "c": 1.0, "pop": 22606, "cpop": 5058, "lat": 33.5786, "lon": -92.8565, "tsys": 109.2, "pw": "direct", "name": "Ouachita County", "st": "AR"}, "05105": {"bei": 43.1, "bp": 19.4, "t": 0.07, "s": 0.72, "p": 0.07, "c": 0.87, "pop": 10055, "cpop": 2248, "lat": 34.9761, "lon": -92.8056, "tsys": 53.4, "pw": "direct", "name": "Perry County", "st": "AR"}, "05107": {"bei": 60.1, "bp": 49.3, "t": 0.14, "s": 1.0, "p": 0.3, "c": 1.0, "pop": 16373, "cpop": 4323, "lat": 34.5376, "lon": -90.7233, "tsys": 85.4, "pw": "direct", "name": "Phillips County", "st": "AR"}, "05109": {"bei": 61.3, "bp": 53.0, "t": 0.22, "s": 0.96, "p": 0.28, "c": 1.0, "pop": 10205, "cpop": 2210, "lat": 34.1456, "lon": -93.6236, "tsys": 122.7, "pw": "direct", "name": "Pike County", "st": "AR"}, "05111": {"bei": 51.0, "bp": 24.7, "t": 0.08, "s": 0.81, "p": 0.4, "c": 0.81, "pop": 22997, "cpop": 5496, "lat": 35.6003, "lon": -90.5696, "tsys": 58.4, "pw": "direct", "name": "Poinsett County", "st": "AR"}, "05113": {"bei": 87.8, "bp": 79.8, "t": 1.0, "s": 1.0, "p": 0.39, "c": 1.0, "pop": 19384, "cpop": 4394, "lat": 34.5122, "lon": -94.2522, "tsys": 480.0, "pw": "transfer", "name": "Polk County", "st": "AR"}, "05115": {"bei": 57.1, "bp": 37.3, "t": 0.12, "s": 1.0, "p": 0.18, "c": 1.0, "pop": 63475, "cpop": 14549, "lat": 35.3172, "lon": -93.0937, "tsys": 77.2, "pw": "direct", "name": "Pope County", "st": "AR"}, "05117": {"bei": 45.9, "bp": 21.5, "t": 0.04, "s": 0.83, "p": 0.1, "c": 0.87, "pop": 8217, "cpop": 1645, "lat": 34.8324, "lon": -91.559, "tsys": 42.9, "pw": "direct", "name": "Prairie County", "st": "AR"}, "05119": {"bei": 21.9, "bp": 9.3, "t": 0.0, "s": 0.32, "p": 0.0, "c": 0.55, "pop": 398322, "cpop": 91711, "lat": 34.7751, "lon": -92.3143, "tsys": 8.6, "pw": "direct", "name": "Pulaski County", "st": "AR"}, "05121": {"bei": 65.6, "bp": 63.3, "t": 0.21, "s": 1.0, "p": 0.46, "c": 1.0, "pop": 18619, "cpop": 4437, "lat": 36.3131, "lon": -91.003, "tsys": 118.4, "pw": "direct", "name": "Randolph County", "st": "AR"}, "05123": {"bei": 48.0, "bp": 22.5, "t": 0.05, "s": 0.81, "p": 0.29, "c": 0.81, "pop": 23138, "cpop": 4929, "lat": 35.0136, "lon": -90.7797, "tsys": 45.3, "pw": "direct", "name": "St. Francis County", "st": "AR"}, "05125": {"bei": 31.0, "bp": 12.9, "t": 0.0, "s": 0.51, "p": 0.0, "c": 0.73, "pop": 123988, "cpop": 28519, "lat": 34.598, "lon": -92.5486, "tsys": 22.6, "pw": "direct", "name": "Saline County", "st": "AR"}, "05127": {"bei": 87.0, "bp": 77.7, "t": 1.0, "s": 1.0, "p": 0.35, "c": 1.0, "pop": 9871, "cpop": 2293, "lat": 34.8877, "lon": -94.0862, "tsys": 480.0, "pw": "transfer", "name": "Scott County", "st": "AR"}, "05129": {"bei": 61.6, "bp": 53.7, "t": 0.2, "s": 1.0, "p": 0.27, "c": 1.0, "pop": 7880, "cpop": 1590, "lat": 35.9207, "lon": -92.6564, "tsys": 115.3, "pw": "direct", "name": "Searcy County", "st": "AR"}, "05131": {"bei": 63.3, "bp": 58.4, "t": 0.2, "s": 1.0, "p": 0.37, "c": 1.0, "pop": 128184, "cpop": 30495, "lat": 35.3207, "lon": -94.3512, "tsys": 114.2, "pw": "direct", "name": "Sebastian County", "st": "AR"}, "05133": {"bei": 66.6, "bp": 64.9, "t": 0.26, "s": 1.0, "p": 0.44, "c": 1.0, "pop": 15913, "cpop": 4506, "lat": 34.0151, "lon": -94.296, "tsys": 140.9, "pw": "direct", "name": "Sevier County", "st": "AR"}, "05135": {"bei": 67.2, "bp": 65.9, "t": 0.32, "s": 1.0, "p": 0.38, "c": 1.0, "pop": 17422, "cpop": 3613, "lat": 36.1854, "lon": -91.5026, "tsys": 170.1, "pw": "direct", "name": "Sharp County", "st": "AR"}, "05137": {"bei": 62.3, "bp": 56.1, "t": 0.24, "s": 1.0, "p": 0.25, "c": 1.0, "pop": 12393, "cpop": 2453, "lat": 35.8679, "lon": -92.1381, "tsys": 133.7, "pw": "direct", "name": "Stone County", "st": "AR"}, "05139": {"bei": 63.5, "bp": 59.0, "t": 0.2, "s": 1.0, "p": 0.37, "c": 1.0, "pop": 38815, "cpop": 9275, "lat": 33.2022, "lon": -92.6537, "tsys": 114.8, "pw": "direct", "name": "Union County", "st": "AR"}, "05141": {"bei": 56.7, "bp": 36.1, "t": 0.11, "s": 1.0, "p": 0.17, "c": 1.0, "pop": 15900, "cpop": 3089, "lat": 35.5772, "lon": -92.4496, "tsys": 73.5, "pw": "direct", "name": "Van Buren County", "st": "AR"}, "05143": {"bei": 60.2, "bp": 49.5, "t": 0.24, "s": 0.88, "p": 0.3, "c": 1.0, "pop": 247331, "cpop": 58576, "lat": 36.0921, "lon": -94.1732, "tsys": 133.8, "pw": "direct", "name": "Washington County", "st": "AR"}, "05145": {"bei": 54.5, "bp": 28.9, "t": 0.07, "s": 1.0, "p": 0.11, "c": 1.0, "pop": 77118, "cpop": 17884, "lat": 35.2358, "lon": -91.7676, "tsys": 55.9, "pw": "direct", "name": "White County", "st": "AR"}, "05147": {"bei": 59.0, "bp": 44.8, "t": 0.16, "s": 1.0, "p": 0.2, "c": 1.0, "pop": 6259, "cpop": 1347, "lat": 35.1816, "lon": -91.2426, "tsys": 97.7, "pw": "direct", "name": "Woodruff County", "st": "AR"}, "05149": {"bei": 58.8, "bp": 44.1, "t": 0.17, "s": 1.0, "p": 0.19, "c": 1.0, "pop": 20342, "cpop": 4843, "lat": 35.1021, "lon": -93.3316, "tsys": 98.8, "pw": "direct", "name": "Yell County", "st": "AR"}, "06001": {"bei": 9.5, "bp": 5.6, "t": 0.01, "s": 0.0, "p": 0.01, "c": 0.36, "pop": 1663823, "cpop": 332827, "lat": 37.7058, "lon": -122.0976, "tsys": 29.2, "pw": "direct", "name": "Alameda County", "st": "CA"}, "06003": {"bei": 68.3, "bp": 67.1, "t": 0.41, "s": 1.0, "p": 0.3, "c": 1.0, "pop": 1515, "cpop": 345, "lat": 38.6218, "lon": -119.7984, "tsys": 211.3, "pw": "direct", "name": "Alpine County", "st": "CA"}, "06005": {"bei": 34.7, "bp": 15.1, "t": 0.08, "s": 0.52, "p": 0.09, "c": 0.71, "pop": 40577, "cpop": 6244, "lat": 38.3993, "lon": -120.7698, "tsys": 58.0, "pw": "direct", "name": "Amador County", "st": "CA"}, "06007": {"bei": 56.0, "bp": 33.1, "t": 0.14, "s": 0.88, "p": 0.25, "c": 1.0, "pop": 213605, "cpop": 43011, "lat": 39.6639, "lon": -121.7326, "tsys": 84.3, "pw": "direct", "name": "Butte County", "st": "CA"}, "06009": {"bei": 54.5, "bp": 29.0, "t": 0.15, "s": 0.89, "p": 0.14, "c": 1.0, "pop": 45674, "cpop": 7690, "lat": 38.1635, "lon": -120.6395, "tsys": 90.4, "pw": "direct", "name": "Calaveras County", "st": "CA"}, "06011": {"bei": 54.6, "bp": 29.3, "t": 0.08, "s": 0.96, "p": 0.15, "c": 1.0, "pop": 21811, "cpop": 5807, "lat": 39.1446, "lon": -122.1026, "tsys": 61.0, "pw": "direct", "name": "Colusa County", "st": "CA"}, "06013": {"bei": 13.0, "bp": 6.4, "t": 0.03, "s": 0.0, "p": 0.03, "c": 0.47, "pop": 1162648, "cpop": 258051, "lat": 37.934, "lon": -122.0235, "tsys": 35.0, "pw": "direct", "name": "Contra Costa County", "st": "CA"}, "06015": {"bei": 100.0, "bp": 97.7, "t": 1.0, "s": 1.0, "p": 1.0, "c": 1.0, "pop": 27462, "cpop": 5798, "lat": 41.775, "lon": -124.1484, "tsys": 480.0, "pw": "transfer", "name": "Del Norte County", "st": "CA"}, "06017": {"bei": 33.1, "bp": 14.0, "t": 0.05, "s": 0.48, "p": 0.09, "c": 0.71, "pop": 191713, "cpop": 37685, "lat": 38.7385, "lon": -120.7512, "tsys": 45.4, "pw": "direct", "name": "El Dorado County", "st": "CA"}, "06019": {"bei": 23.4, "bp": 10.0, "t": 0.0, "s": 0.38, "p": 0.0, "c": 0.55, "pop": 1008280, "cpop": 282976, "lat": 36.7449, "lon": -119.766, "tsys": 2.5, "pw": "direct", "name": "Fresno County", "st": "CA"}, "06021": {"bei": 58.4, "bp": 42.7, "t": 0.15, "s": 0.93, "p": 0.28, "c": 1.0, "pop": 28657, "cpop": 7580, "lat": 39.6621, "lon": -122.1899, "tsys": 93.2, "pw": "direct", "name": "Glenn County", "st": "CA"}, "06023": {"bei": 95.4, "bp": 92.2, "t": 1.0, "s": 1.0, "p": 0.77, "c": 1.0, "pop": 136132, "cpop": 25608, "lat": 40.7507, "lon": -124.0684, "tsys": 480.0, "pw": "transfer", "name": "Humboldt County", "st": "CA"}, "06025": {"bei": 86.3, "bp": 76.2, "t": 1.0, "s": 1.0, "p": 0.32, "c": 1.0, "pop": 179578, "cpop": 51049, "lat": 32.8432, "lon": -115.5411, "tsys": 480.0, "pw": "transfer", "name": "Imperial County", "st": "CA"}, "06027": {"bei": 75.5, "bp": 71.0, "t": 0.64, "s": 1.0, "p": 0.32, "c": 1.0, "pop": 18829, "cpop": 3838, "lat": 37.1116, "lon": -118.1226, "tsys": 314.6, "pw": "direct", "name": "Inyo County", "st": "CA"}, "06029": {"bei": 26.8, "bp": 11.3, "t": 0.0, "s": 0.38, "p": 0.0, "c": 0.69, "pop": 906883, "cpop": 261013, "lat": 35.3683, "lon": -118.9421, "tsys": 10.6, "pw": "direct", "name": "Kern County", "st": "CA"}, "06031": {"bei": 45.8, "bp": 21.4, "t": 0.08, "s": 0.81, "p": 0.07, "c": 0.87, "pop": 152515, "cpop": 41048, "lat": 36.2482, "lon": -119.7217, "tsys": 58.5, "pw": "direct", "name": "Kings County", "st": "CA"}, "06033": {"bei": 60.3, "bp": 50.0, "t": 0.22, "s": 0.96, "p": 0.23, "c": 1.0, "pop": 68024, "cpop": 14511, "lat": 38.9825, "lon": -122.7243, "tsys": 121.9, "pw": "direct", "name": "Lake County", "st": "CA"}, "06035": {"bei": 89.8, "bp": 84.0, "t": 1.0, "s": 1.0, "p": 0.49, "c": 1.0, "pop": 31873, "cpop": 5460, "lat": 40.4085, "lon": -120.5358, "tsys": 480.0, "pw": "transfer", "name": "Lassen County", "st": "CA"}, "06037": {"bei": 0.0, "bp": 1.0, "t": 0.0, "s": 0.0, "p": 0.0, "c": 0.0, "pop": 9936690, "cpop": 2093072, "lat": 34.0675, "lon": -118.2462, "tsys": 6.6, "pw": "direct", "name": "Los Angeles County", "st": "CA"}, "06039": {"bei": 35.7, "bp": 15.6, "t": 0.04, "s": 0.63, "p": 0.03, "c": 0.73, "pop": 157243, "cpop": 42872, "lat": 37.0423, "lon": -120.0136, "tsys": 38.5, "pw": "direct", "name": "Madera County", "st": "CA"}, "06041": {"bei": 19.6, "bp": 8.4, "t": 0.02, "s": 0.19, "p": 0.0, "c": 0.57, "pop": 260485, "cpop": 50946, "lat": 37.9884, "lon": -122.5485, "tsys": 32.0, "pw": "direct", "name": "Marin County", "st": "CA"}, "06043": {"bei": 57.8, "bp": 39.6, "t": 0.15, "s": 1.0, "p": 0.16, "c": 1.0, "pop": 17130, "cpop": 2927, "lat": 37.5473, "lon": -119.9375, "tsys": 92.4, "pw": "direct", "name": "Mariposa County", "st": "CA"}, "06045": {"bei": 88.1, "bp": 80.5, "t": 1.0, "s": 1.0, "p": 0.4, "c": 1.0, "pop": 91145, "cpop": 19250, "lat": 39.2857, "lon": -123.3895, "tsys": 480.0, "pw": "transfer", "name": "Mendocino County", "st": "CA"}, "06047": {"bei": 54.7, "bp": 29.4, "t": 0.1, "s": 0.93, "p": 0.17, "c": 1.0, "pop": 282290, "cpop": 82317, "lat": 37.2765, "lon": -120.6333, "tsys": 68.6, "pw": "direct", "name": "Merced County", "st": "CA"}, "06049": {"bei": 95.9, "bp": 92.6, "t": 1.0, "s": 1.0, "p": 0.8, "c": 1.0, "pop": 8651, "cpop": 1636, "lat": 41.557, "lon": -120.6619, "tsys": 480.0, "pw": "transfer", "name": "Modoc County", "st": "CA"}, "06051": {"bei": 75.0, "bp": 70.9, "t": 0.65, "s": 1.0, "p": 0.28, "c": 1.0, "pop": 13219, "cpop": 2509, "lat": 37.7581, "lon": -118.9042, "tsys": 318.2, "pw": "direct", "name": "Mono County", "st": "CA"}, "06053": {"bei": 54.4, "bp": 28.8, "t": 0.16, "s": 0.88, "p": 0.14, "c": 1.0, "pop": 437609, "cpop": 113042, "lat": 36.6117, "lon": -121.6405, "tsys": 94.1, "pw": "direct", "name": "Monterey County", "st": "CA"}, "06055": {"bei": 34.3, "bp": 14.9, "t": 0.07, "s": 0.43, "p": 0.08, "c": 0.79, "pop": 137384, "cpop": 27447, "lat": 38.3287, "lon": -122.3207, "tsys": 55.9, "pw": "direct", "name": "Napa County", "st": "CA"}, "06057": {"bei": 54.8, "bp": 29.9, "t": 0.12, "s": 0.93, "p": 0.16, "c": 1.0, "pop": 102322, "cpop": 17355, "lat": 39.2235, "lon": -120.8942, "tsys": 76.5, "pw": "direct", "name": "Nevada County", "st": "CA"}, "06059": {"bei": 0.0, "bp": 1.0, "t": 0.0, "s": 0.0, "p": 0.0, "c": 0.0, "pop": 3175227, "cpop": 680041, "lat": 33.7328, "lon": -117.8586, "tsys": 7.9, "pw": "direct", "name": "Orange County", "st": "CA"}, "06061": {"bei": 11.5, "bp": 6.2, "t": 0.02, "s": 0.0, "p": 0.03, "c": 0.41, "pop": 406608, "cpop": 89190, "lat": 38.8427, "lon": -121.1997, "tsys": 31.6, "pw": "direct", "name": "Placer County", "st": "CA"}, "06063": {"bei": 87.3, "bp": 78.5, "t": 1.0, "s": 1.0, "p": 0.36, "c": 1.0, "pop": 19650, "cpop": 3412, "lat": 40.0086, "lon": -120.8321, "tsys": 480.0, "pw": "transfer", "name": "Plumas County", "st": "CA"}, "06065": {"bei": 16.9, "bp": 7.6, "t": 0.04, "s": 0.07, "p": 0.03, "c": 0.53, "pop": 2429487, "cpop": 597531, "lat": 33.799, "lon": -117.0816, "tsys": 41.2, "pw": "direct", "name": "Riverside County", "st": "CA"}, "06067": {"bei": 0.5, "bp": 2.6, "t": 0.0, "s": 0.0, "p": 0.0, "c": 0.02, "pop": 1579211, "cpop": 365288, "lat": 38.568, "lon": -121.3808, "tsys": 8.3, "pw": "direct", "name": "Sacramento County", "st": "CA"}, "06069": {"bei": 52.5, "bp": 25.8, "t": 0.07, "s": 0.93, "p": 0.12, "c": 1.0, "pop": 64753, "cpop": 16474, "lat": 36.8284, "lon": -121.3788, "tsys": 53.0, "pw": "direct", "name": "San Benito County", "st": "CA"}, "06071": {"bei": 4.4, "bp": 4.1, "t": 0.0, "s": 0.0, "p": 0.0, "c": 0.18, "pop": 2180563, "cpop": 564737, "lat": 34.1934, "lon": -117.3596, "tsys": 13.8, "pw": "direct", "name": "San Bernardino County", "st": "CA"}, "06073": {"bei": 16.1, "bp": 7.3, "t": 0.0, "s": 0.0, "p": 0.0, "c": 0.64, "pop": 3289701, "cpop": 697372, "lat": 32.8842, "lon": -117.1111, "tsys": 11.7, "pw": "direct", "name": "San Diego County", "st": "CA"}, "06075": {"bei": 4.5, "bp": 4.2, "t": 0.0, "s": 0.0, "p": 0.0, "c": 0.18, "pop": 851036, "cpop": 115402, "lat": 37.7603, "lon": -122.4374, "tsys": 7.7, "pw": "direct", "name": "San Francisco County", "st": "CA"}, "06077": {"bei": 28.7, "bp": 11.9, "t": 0.06, "s": 0.28, "p": 0.11, "c": 0.71, "pop": 779445, "cpop": 207464, "lat": 37.9254, "lon": -121.3021, "tsys": 48.5, "pw": "direct", "name": "San Joaquin County", "st": "CA"}, "06079": {"bei": 68.6, "bp": 67.4, "t": 0.41, "s": 1.0, "p": 0.31, "c": 1.0, "pop": 281712, "cpop": 49037, "lat": 35.3398, "lon": -120.659, "tsys": 210.6, "pw": "direct", "name": "San Luis Obispo County", "st": "CA"}, "06081": {"bei": 9.2, "bp": 5.5, "t": 0.01, "s": 0.0, "p": 0.0, "c": 0.36, "pop": 754250, "cpop": 150187, "lat": 37.5648, "lon": -122.3403, "tsys": 25.7, "pw": "direct", "name": "San Mateo County", "st": "CA"}, "06083": {"bei": 59.2, "bp": 45.8, "t": 0.2, "s": 0.93, "p": 0.26, "c": 1.0, "pop": 445213, "cpop": 98581, "lat": 34.6451, "lon": -120.1005, "tsys": 112.1, "pw": "direct", "name": "Santa Barbara County", "st": "CA"}, "06085": {"bei": 10.7, "bp": 6.0, "t": 0.0, "s": 0.0, "p": 0.0, "c": 0.43, "pop": 1916831, "cpop": 405816, "lat": 37.3149, "lon": -121.9102, "tsys": 2.1, "pw": "direct", "name": "Santa Clara County", "st": "CA"}, "06087": {"bei": 32.1, "bp": 13.4, "t": 0.03, "s": 0.44, "p": 0.02, "c": 0.79, "pop": 268571, "cpop": 50320, "lat": 36.9863, "lon": -121.9372, "tsys": 35.7, "pw": "direct", "name": "Santa Cruz County", "st": "CA"}, "06089": {"bei": 87.5, "bp": 79.1, "t": 1.0, "s": 0.88, "p": 0.53, "c": 1.0, "pop": 181852, "cpop": 39190, "lat": 40.58, "lon": -122.2941, "tsys": 480.0, "pw": "transfer", "name": "Shasta County", "st": "CA"}, "06091": {"bei": 63.4, "bp": 58.8, "t": 0.29, "s": 0.96, "p": 0.28, "c": 1.0, "pop": 2916, "cpop": 406, "lat": 39.5769, "lon": -120.522, "tsys": 154.5, "pw": "direct", "name": "Sierra County", "st": "CA"}, "06093": {"bei": 96.3, "bp": 93.0, "t": 1.0, "s": 1.0, "p": 0.81, "c": 1.0, "pop": 44049, "cpop": 8872, "lat": 41.5743, "lon": -122.5069, "tsys": 480.0, "pw": "transfer", "name": "Siskiyou County", "st": "CA"}, "06095": {"bei": 15.5, "bp": 7.0, "t": 0.05, "s": 0.0, "p": 0.08, "c": 0.49, "pop": 450995, "cpop": 98997, "lat": 38.2365, "lon": -122.0672, "tsys": 46.6, "pw": "direct", "name": "Solano County", "st": "CA"}, "06097": {"bei": 47.6, "bp": 22.2, "t": 0.08, "s": 0.72, "p": 0.12, "c": 1.0, "pop": 488436, "cpop": 94082, "lat": 38.4121, "lon": -122.7211, "tsys": 58.3, "pw": "direct", "name": "Sonoma County", "st": "CA"}, "06099": {"bei": 48.8, "bp": 23.1, "t": 0.12, "s": 0.68, "p": 0.16, "c": 1.0, "pop": 552063, "cpop": 148111, "lat": 37.6196, "lon": -120.9568, "tsys": 76.0, "pw": "direct", "name": "Stanislaus County", "st": "CA"}, "06101": {"bei": 34.2, "bp": 14.6, "t": 0.05, "s": 0.52, "p": 0.1, "c": 0.71, "pop": 99101, "cpop": 25242, "lat": 39.1368, "lon": -121.6492, "tsys": 46.4, "pw": "direct", "name": "Sutter County", "st": "CA"}, "06103": {"bei": 86.2, "bp": 75.9, "t": 1.0, "s": 0.93, "p": 0.4, "c": 1.0, "pop": 65484, "cpop": 15576, "lat": 40.1117, "lon": -122.2182, "tsys": 480.0, "pw": "transfer", "name": "Tehama County", "st": "CA"}, "06105": {"bei": 92.0, "bp": 88.2, "t": 1.0, "s": 0.96, "p": 0.65, "c": 1.0, "pop": 15889, "cpop": 2608, "lat": 40.8044, "lon": -122.9869, "tsys": 480.0, "pw": "transfer", "name": "Trinity County", "st": "CA"}, "06107": {"bei": 54.3, "bp": 28.6, "t": 0.07, "s": 1.0, "p": 0.12, "c": 1.0, "pop": 473446, "cpop": 142992, "lat": 36.2548, "lon": -119.2341, "tsys": 52.4, "pw": "direct", "name": "Tulare County", "st": "CA"}, "06109": {"bei": 59.9, "bp": 48.6, "t": 0.23, "s": 0.93, "p": 0.24, "c": 1.0, "pop": 54993, "cpop": 9333, "lat": 37.9716, "lon": -120.2893, "tsys": 128.8, "pw": "direct", "name": "Tuolumne County", "st": "CA"}, "06111": {"bei": 25.3, "bp": 10.7, "t": 0.03, "s": 0.09, "p": 0.13, "c": 0.79, "pop": 842009, "cpop": 187695, "lat": 34.2437, "lon": -119.0269, "tsys": 35.8, "pw": "direct", "name": "Ventura County", "st": "CA"}, "06113": {"bei": 1.6, "bp": 3.2, "t": 0.04, "s": 0.0, "p": 0.0, "c": 0.02, "pop": 217141, "cpop": 44537, "lat": 38.6014, "lon": -121.7225, "tsys": 38.9, "pw": "direct", "name": "Yolo County", "st": "CA"}, "06115": {"bei": 34.2, "bp": 14.6, "t": 0.06, "s": 0.52, "p": 0.09, "c": 0.71, "pop": 81705, "cpop": 22163, "lat": 39.1284, "lon": -121.5145, "tsys": 48.1, "pw": "direct", "name": "Yuba County", "st": "CA"}, "08001": {"bei": 0.0, "bp": 1.0, "t": 0.0, "s": 0.0, "p": 0.0, "c": 0.0, "pop": 520149, "cpop": 133106, "lat": 39.8779, "lon": -104.9166, "tsys": 19.3, "pw": "direct", "name": "Adams County", "st": "CO"}, "08003": {"bei": 91.5, "bp": 87.2, "t": 1.0, "s": 1.0, "p": 0.58, "c": 1.0, "pop": 16460, "cpop": 3931, "lat": 37.4755, "lon": -105.8894, "tsys": 480.0, "pw": "transfer", "name": "Alamosa County", "st": "CO"}, "08005": {"bei": 0.0, "bp": 1.0, "t": 0.0, "s": 0.0, "p": 0.0, "c": 0.0, "pop": 654453, "cpop": 149726, "lat": 39.6461, "lon": -104.8353, "tsys": 16.0, "pw": "direct", "name": "Arapahoe County", "st": "CO"}, "08007": {"bei": 74.5, "bp": 70.6, "t": 0.45, "s": 1.0, "p": 0.55, "c": 1.0, "pop": 13509, "cpop": 2393, "lat": 37.2445, "lon": -107.0984, "tsys": 228.8, "pw": "direct", "name": "Archuleta County", "st": "CO"}, "08009": {"bei": 95.9, "bp": 92.6, "t": 1.0, "s": 1.0, "p": 0.8, "c": 1.0, "pop": 3496, "cpop": 777, "lat": 37.3011, "lon": -102.4647, "tsys": 480.0, "pw": "transfer", "name": "Baca County", "st": "CO"}, "08011": {"bei": 91.1, "bp": 86.4, "t": 1.0, "s": 1.0, "p": 0.56, "c": 1.0, "pop": 5561, "cpop": 933, "lat": 37.9754, "lon": -103.119, "tsys": 480.0, "pw": "transfer", "name": "Bent County", "st": "CO"}, "08013": {"bei": 2.4, "bp": 3.6, "t": 0.04, "s": 0.0, "p": 0.05, "c": 0.01, "pop": 328658, "cpop": 59565, "lat": 40.0629, "lon": -105.1821, "tsys": 39.7, "pw": "direct", "name": "Boulder County", "st": "CO"}, "08014": {"bei": 0.5, "bp": 2.6, "t": 0.01, "s": 0.0, "p": 0.0, "c": 0.0, "pop": 73946, "cpop": 15908, "lat": 39.9396, "lon": -105.0579, "tsys": 28.5, "pw": "direct", "name": "Broomfield County", "st": "CO"}, "08015": {"bei": 63.0, "bp": 57.7, "t": 0.23, "s": 1.0, "p": 0.3, "c": 1.0, "pop": 19564, "cpop": 2929, "lat": 38.6788, "lon": -106.0841, "tsys": 129.7, "pw": "direct", "name": "Chaffee County", "st": "CO"}, "08017": {"bei": 89.6, "bp": 83.6, "t": 1.0, "s": 1.0, "p": 0.48, "c": 1.0, "pop": 1726, "cpop": 431, "lat": 38.8356, "lon": -102.6018, "tsys": 480.0, "pw": "transfer", "name": "Cheyenne County", "st": "CO"}, "08019": {"bei": 19.7, "bp": 8.5, "t": 0.06, "s": 0.22, "p": 0.07, "c": 0.44, "pop": 9403, "cpop": 1110, "lat": 39.6944, "lon": -105.6323, "tsys": 49.1, "pw": "direct", "name": "Clear Creek County", "st": "CO"}, "08021": {"bei": 90.6, "bp": 85.7, "t": 1.0, "s": 1.0, "p": 0.53, "c": 1.0, "pop": 7553, "cpop": 1932, "lat": 37.1723, "lon": -106.1067, "tsys": 480.0, "pw": "transfer", "name": "Conejos County", "st": "CO"}, "08023": {"bei": 92.1, "bp": 88.4, "t": 1.0, "s": 1.0, "p": 0.61, "c": 1.0, "pop": 3534, "cpop": 631, "lat": 37.2851, "lon": -105.4274, "tsys": 480.0, "pw": "transfer", "name": "Costilla County", "st": "CO"}, "08025": {"bei": 88.2, "bp": 80.8, "t": 1.0, "s": 1.0, "p": 0.41, "c": 1.0, "pop": 5782, "cpop": 840, "lat": 38.2369, "lon": -103.7861, "tsys": 480.0, "pw": "transfer", "name": "Crowley County", "st": "CO"}, "08027": {"bei": 87.7, "bp": 79.4, "t": 1.0, "s": 1.0, "p": 0.38, "c": 1.0, "pop": 4885, "cpop": 844, "lat": 38.0737, "lon": -105.3641, "tsys": 480.0, "pw": "transfer", "name": "Custer County", "st": "CO"}, "08029": {"bei": 91.3, "bp": 86.8, "t": 1.0, "s": 0.96, "p": 0.61, "c": 1.0, "pop": 31173, "cpop": 6105, "lat": 38.8342, "lon": -107.9218, "tsys": 480.0, "pw": "transfer", "name": "Delta County", "st": "CO"}, "08031": {"bei": 0.0, "bp": 1.0, "t": 0.0, "s": 0.0, "p": 0.0, "c": 0.0, "pop": 710800, "cpop": 132983, "lat": 39.7254, "lon": -104.9489, "tsys": 13.9, "pw": "direct", "name": "Denver County", "st": "CO"}, "08033": {"bei": 88.9, "bp": 82.3, "t": 0.77, "s": 1.0, "p": 0.79, "c": 1.0, "pop": 2329, "cpop": 338, "lat": 37.7338, "lon": -108.5062, "tsys": 374.7, "pw": "direct", "name": "Dolores County", "st": "CO"}, "08035": {"bei": 0.0, "bp": 1.0, "t": 0.0, "s": 0.0, "p": 0.0, "c": 0.0, "pop": 360206, "cpop": 88073, "lat": 39.4772, "lon": -104.8716, "tsys": 19.2, "pw": "direct", "name": "Douglas County", "st": "CO"}, "08037": {"bei": 64.8, "bp": 62.0, "t": 0.29, "s": 1.0, "p": 0.3, "c": 1.0, "pop": 55650, "cpop": 11528, "lat": 39.5736, "lon": -106.6979, "tsys": 155.6, "pw": "direct", "name": "Eagle County", "st": "CO"}, "08039": {"bei": 16.5, "bp": 7.5, "t": 0.09, "s": 0.07, "p": 0.05, "c": 0.44, "pop": 26457, "cpop": 5566, "lat": 39.3918, "lon": -104.4962, "tsys": 62.8, "pw": "direct", "name": "Elbert County", "st": "CO"}, "08041": {"bei": 46.3, "bp": 21.6, "t": 0.08, "s": 0.63, "p": 0.16, "c": 1.0, "pop": 730323, "cpop": 171802, "lat": 38.8756, "lon": -104.7509, "tsys": 59.2, "pw": "direct", "name": "El Paso County", "st": "CO"}, "08043": {"bei": 58.5, "bp": 42.8, "t": 0.19, "s": 0.89, "p": 0.27, "c": 1.0, "pop": 49107, "cpop": 7913, "lat": 38.4448, "lon": -105.2013, "tsys": 110.5, "pw": "direct", "name": "Fremont County", "st": "CO"}, "08045": {"bei": 89.9, "bp": 84.1, "t": 1.0, "s": 1.0, "p": 0.5, "c": 1.0, "pop": 61683, "cpop": 15193, "lat": 39.5476, "lon": -107.5781, "tsys": 480.0, "pw": "transfer", "name": "Garfield County", "st": "CO"}, "08047": {"bei": 17.5, "bp": 7.8, "t": 0.15, "s": 0.04, "p": 0.06, "c": 0.44, "pop": 5856, "cpop": 1047, "lat": 39.8487, "lon": -105.5016, "tsys": 90.5, "pw": "direct", "name": "Gilpin County", "st": "CO"}, "08049": {"bei": 58.7, "bp": 43.7, "t": 0.21, "s": 0.96, "p": 0.17, "c": 1.0, "pop": 15724, "cpop": 2691, "lat": 40.0476, "lon": -105.9564, "tsys": 117.9, "pw": "direct", "name": "Grand County", "st": "CO"}, "08051": {"bei": 88.7, "bp": 81.9, "t": 1.0, "s": 1.0, "p": 0.44, "c": 1.0, "pop": 17018, "cpop": 2684, "lat": 38.6702, "lon": -106.9099, "tsys": 480.0, "pw": "transfer", "name": "Gunnison County", "st": "CO"}, "08053": {"bei": 93.4, "bp": 90.3, "t": 1.0, "s": 1.0, "p": 0.67, "c": 1.0, "pop": 911, "cpop": 101, "lat": 37.8115, "lon": -107.384, "tsys": 480.0, "pw": "transfer", "name": "Hinsdale County", "st": "CO"}, "08055": {"bei": 90.1, "bp": 84.5, "t": 1.0, "s": 1.0, "p": 0.5, "c": 1.0, "pop": 6896, "cpop": 1090, "lat": 37.6261, "lon": -104.8679, "tsys": 480.0, "pw": "transfer", "name": "Huerfano County", "st": "CO"}, "08057": {"bei": 68.4, "bp": 67.2, "t": 0.39, "s": 1.0, "p": 0.34, "c": 1.0, "pop": 1440, "cpop": 259, "lat": 40.6634, "lon": -106.3292, "tsys": 199.7, "pw": "direct", "name": "Jackson County", "st": "CO"}, "08059": {"bei": 0.0, "bp": 1.0, "t": 0.0, "s": 0.0, "p": 0.0, "c": 0.0, "pop": 580519, "cpop": 110522, "lat": 39.7224, "lon": -105.1315, "tsys": 19.6, "pw": "direct", "name": "Jefferson County", "st": "CO"}, "08061": {"bei": 90.5, "bp": 85.4, "t": 1.0, "s": 1.0, "p": 0.53, "c": 1.0, "pop": 1347, "cpop": 325, "lat": 38.3877, "lon": -102.7568, "tsys": 480.0, "pw": "transfer", "name": "Kiowa County", "st": "CO"}, "08063": {"bei": 89.5, "bp": 83.2, "t": 1.0, "s": 1.0, "p": 0.47, "c": 1.0, "pop": 7039, "cpop": 1811, "lat": 39.3075, "lon": -102.409, "tsys": 480.0, "pw": "transfer", "name": "Kit Carson County", "st": "CO"}, "08065": {"bei": 60.7, "bp": 51.5, "t": 0.19, "s": 1.0, "p": 0.25, "c": 1.0, "pop": 7403, "cpop": 1236, "lat": 39.2246, "lon": -106.3318, "tsys": 110.2, "pw": "direct", "name": "Lake County", "st": "CO"}, "08067": {"bei": 75.3, "bp": 71.0, "t": 0.44, "s": 1.0, "p": 0.61, "c": 1.0, "pop": 55983, "cpop": 10200, "lat": 37.2807, "lon": -107.8137, "tsys": 223.7, "pw": "direct", "name": "La Plata County", "st": "CO"}, "08069": {"bei": 32.2, "bp": 13.4, "t": 0.03, "s": 0.4, "p": 0.15, "c": 0.73, "pop": 359363, "cpop": 67643, "lat": 40.5045, "lon": -105.0924, "tsys": 37.0, "pw": "direct", "name": "Larimer County", "st": "CO"}, "08071": {"bei": 92.6, "bp": 89.0, "t": 1.0, "s": 1.0, "p": 0.63, "c": 1.0, "pop": 14422, "cpop": 2634, "lat": 37.2091, "lon": -104.5255, "tsys": 480.0, "pw": "transfer", "name": "Las Animas County", "st": "CO"}, "08073": {"bei": 58.5, "bp": 43.1, "t": 0.12, "s": 1.0, "p": 0.25, "c": 1.0, "pop": 5583, "cpop": 960, "lat": 39.1875, "lon": -103.5679, "tsys": 77.1, "pw": "direct", "name": "Lincoln County", "st": "CO"}, "08075": {"bei": 62.4, "bp": 56.3, "t": 0.17, "s": 1.0, "p": 0.37, "c": 1.0, "pop": 21302, "cpop": 4106, "lat": 40.6495, "lon": -103.1885, "tsys": 99.3, "pw": "direct", "name": "Logan County", "st": "CO"}, "08077": {"bei": 91.4, "bp": 87.0, "t": 1.0, "s": 0.88, "p": 0.73, "c": 1.0, "pop": 156131, "cpop": 32769, "lat": 39.0926, "lon": -108.5549, "tsys": 480.0, "pw": "transfer", "name": "Mesa County", "st": "CO"}, "08079": {"bei": 92.6, "bp": 89.1, "t": 1.0, "s": 1.0, "p": 0.63, "c": 1.0, "pop": 794, "cpop": 95, "lat": 37.5491, "lon": -107.0032, "tsys": 480.0, "pw": "transfer", "name": "Mineral County", "st": "CO"}, "08081": {"bei": 91.0, "bp": 86.3, "t": 1.0, "s": 1.0, "p": 0.55, "c": 1.0, "pop": 13232, "cpop": 3345, "lat": 40.5471, "lon": -107.6008, "tsys": 480.0, "pw": "transfer", "name": "Moffat County", "st": "CO"}, "08083": {"bei": 80.9, "bp": 72.2, "t": 0.56, "s": 1.0, "p": 0.71, "c": 1.0, "pop": 26070, "cpop": 5504, "lat": 37.3784, "lon": -108.5318, "tsys": 277.7, "pw": "direct", "name": "Montezuma County", "st": "CO"}, "08085": {"bei": 93.1, "bp": 89.7, "t": 1.0, "s": 1.0, "p": 0.65, "c": 1.0, "pop": 42823, "cpop": 8809, "lat": 38.4757, "lon": -107.9164, "tsys": 480.0, "pw": "transfer", "name": "Montrose County", "st": "CO"}, "08087": {"bei": 56.4, "bp": 35.0, "t": 0.09, "s": 1.0, "p": 0.19, "c": 1.0, "pop": 29045, "cpop": 7525, "lat": 40.236, "lon": -103.8093, "tsys": 62.0, "pw": "direct", "name": "Morgan County", "st": "CO"}, "08089": {"bei": 89.5, "bp": 83.4, "t": 1.0, "s": 1.0, "p": 0.48, "c": 1.0, "pop": 18580, "cpop": 4340, "lat": 38.0177, "lon": -103.6544, "tsys": 480.0, "pw": "transfer", "name": "Otero County", "st": "CO"}, "08091": {"bei": 93.4, "bp": 90.2, "t": 1.0, "s": 1.0, "p": 0.67, "c": 1.0, "pop": 4936, "cpop": 630, "lat": 38.1604, "lon": -107.7523, "tsys": 480.0, "pw": "transfer", "name": "Ouray County", "st": "CO"}, "08093": {"bei": 50.2, "bp": 24.0, "t": 0.36, "s": 0.76, "p": 0.1, "c": 0.73, "pop": 17597, "cpop": 2616, "lat": 39.3049, "lon": -105.6311, "tsys": 187.0, "pw": "direct", "name": "Park County", "st": "CO"}, "08095": {"bei": 69.0, "bp": 67.7, "t": 0.28, "s": 1.0, "p": 0.52, "c": 1.0, "pop": 4493, "cpop": 1143, "lat": 40.5908, "lon": -102.3161, "tsys": 151.8, "pw": "direct", "name": "Phillips County", "st": "CO"}, "08097": {"bei": 87.4, "bp": 78.9, "t": 1.0, "s": 1.0, "p": 0.37, "c": 1.0, "pop": 17325, "cpop": 2736, "lat": 39.1983, "lon": -106.9116, "tsys": 480.0, "pw": "transfer", "name": "Pitkin County", "st": "CO"}, "08099": {"bei": 92.5, "bp": 88.9, "t": 1.0, "s": 1.0, "p": 0.62, "c": 1.0, "pop": 11968, "cpop": 3118, "lat": 38.051, "lon": -102.5429, "tsys": 480.0, "pw": "transfer", "name": "Prowers County", "st": "CO"}, "08101": {"bei": 83.8, "bp": 73.1, "t": 1.0, "s": 0.89, "p": 0.33, "c": 1.0, "pop": 168135, "cpop": 37327, "lat": 38.267, "lon": -104.645, "tsys": 480.0, "pw": "transfer", "name": "Pueblo County", "st": "CO"}, "08103": {"bei": 92.7, "bp": 89.3, "t": 1.0, "s": 1.0, "p": 0.64, "c": 1.0, "pop": 6511, "cpop": 1565, "lat": 39.96, "lon": -108.216, "tsys": 480.0, "pw": "transfer", "name": "Rio Blanco County", "st": "CO"}, "08105": {"bei": 91.5, "bp": 87.1, "t": 1.0, "s": 1.0, "p": 0.58, "c": 1.0, "pop": 11442, "cpop": 2407, "lat": 37.5902, "lon": -106.2378, "tsys": 480.0, "pw": "transfer", "name": "Rio Grande County", "st": "CO"}, "08107": {"bei": 88.1, "bp": 80.6, "t": 1.0, "s": 1.0, "p": 0.4, "c": 1.0, "pop": 24944, "cpop": 4386, "lat": 40.4434, "lon": -106.919, "tsys": 480.0, "pw": "transfer", "name": "Routt County", "st": "CO"}, "08109": {"bei": 89.6, "bp": 83.6, "t": 1.0, "s": 1.0, "p": 0.48, "c": 1.0, "pop": 6454, "cpop": 1232, "lat": 38.002, "lon": -106.3262, "tsys": 480.0, "pw": "transfer", "name": "Saguache County", "st": "CO"}, "08111": {"bei": 94.5, "bp": 91.6, "t": 1.0, "s": 1.0, "p": 0.72, "c": 1.0, "pop": 690, "cpop": 86, "lat": 37.781, "lon": -107.6703, "tsys": 480.0, "pw": "transfer", "name": "San Juan County", "st": "CO"}, "08113": {"bei": 95.1, "bp": 91.9, "t": 1.0, "s": 1.0, "p": 0.75, "c": 1.0, "pop": 8082, "cpop": 1317, "lat": 37.938, "lon": -108.0137, "tsys": 480.0, "pw": "transfer", "name": "San Miguel County", "st": "CO"}, "08115": {"bei": 69.2, "bp": 67.9, "t": 0.27, "s": 1.0, "p": 0.55, "c": 1.0, "pop": 2391, "cpop": 531, "lat": 40.8716, "lon": -102.3554, "tsys": 146.7, "pw": "direct", "name": "Sedgwick County", "st": "CO"}, "08117": {"bei": 56.9, "bp": 37.0, "t": 0.12, "s": 1.0, "p": 0.16, "c": 1.0, "pop": 30955, "cpop": 4976, "lat": 39.5659, "lon": -106.0393, "tsys": 78.9, "pw": "direct", "name": "Summit County", "st": "CO"}, "08119": {"bei": 49.3, "bp": 23.5, "t": 0.14, "s": 0.7, "p": 0.13, "c": 1.0, "pop": 24758, "cpop": 4141, "lat": 38.9481, "lon": -105.1389, "tsys": 85.0, "pw": "direct", "name": "Teller County", "st": "CO"}, "08121": {"bei": 61.1, "bp": 52.3, "t": 0.18, "s": 1.0, "p": 0.29, "c": 1.0, "pop": 4817, "cpop": 1066, "lat": 40.052, "lon": -103.216, "tsys": 102.8, "pw": "direct", "name": "Washington County", "st": "CO"}, "08123": {"bei": 8.4, "bp": 5.4, "t": 0.0, "s": 0.0, "p": 0.09, "c": 0.26, "pop": 331466, "cpop": 85134, "lat": 40.3224, "lon": -104.7965, "tsys": 19.9, "pw": "direct", "name": "Weld County", "st": "CO"}, "08125": {"bei": 67.8, "bp": 66.5, "t": 0.3, "s": 1.0, "p": 0.45, "c": 1.0, "pop": 9938, "cpop": 2646, "lat": 39.9888, "lon": -102.4666, "tsys": 157.5, "pw": "direct", "name": "Yuma County", "st": "CO"}, "09110": {"bei": 42.7, "bp": 19.1, "t": 0.08, "s": 0.46, "p": 0.19, "c": 1.0, "pop": 977165, "cpop": 200946, "lat": 41.7778, "lon": -72.6488, "tsys": 59.4, "pw": "direct"}, "09120": {"bei": 0.3, "bp": 2.4, "t": 0.0, "s": 0.0, "p": 0.02, "c": 0.0, "pop": 326381, "cpop": 71713, "lat": 41.2078, "lon": -73.2049, "tsys": 7.2, "pw": "direct"}, "09130": {"bei": 35.4, "bp": 15.5, "t": 0.08, "s": 0.33, "p": 0.13, "c": 0.88, "pop": 175244, "cpop": 30301, "lat": 41.4712, "lon": -72.5571, "tsys": 59.9, "pw": "direct"}, "09140": {"bei": 19.1, "bp": 8.3, "t": 0.02, "s": 0.0, "p": 0.1, "c": 0.65, "pop": 451887, "cpop": 93594, "lat": 41.5208, "lon": -73.0459, "tsys": 33.7, "pw": "direct"}, "09150": {"bei": 40.5, "bp": 18.2, "t": 0.05, "s": 0.52, "p": 0.04, "c": 1.0, "pop": 95687, "cpop": 19152, "lat": 41.823, "lon": -71.9394, "tsys": 47.5, "pw": "direct"}, "09160": {"bei": 34.5, "bp": 15.0, "t": 0.08, "s": 0.26, "p": 0.18, "c": 0.88, "pop": 112696, "cpop": 21501, "lat": 41.8264, "lon": -73.145, "tsys": 58.9, "pw": "direct"}, "09170": {"bei": 17.8, "bp": 7.9, "t": 0.01, "s": 0.0, "p": 0.06, "c": 0.65, "pop": 571298, "cpop": 113362, "lat": 41.3453, "lon": -72.8896, "tsys": 26.6, "pw": "direct"}, "09180": {"bei": 48.1, "bp": 22.7, "t": 0.08, "s": 0.74, "p": 0.11, "c": 1.0, "pop": 280293, "cpop": 54146, "lat": 41.4699, "lon": -72.1015, "tsys": 60.1, "pw": "direct"}, "09190": {"bei": 0.7, "bp": 2.7, "t": 0.02, "s": 0.0, "p": 0.01, "c": 0.0, "pop": 620666, "cpop": 138162, "lat": 41.2171, "lon": -73.471, "tsys": 29.8, "pw": "direct"}, "10001": {"bei": null, "bp": null, "t": null, "s": 0.96, "p": 0.16, "c": 1.0, "pop": 182400, "cpop": 41732, "lat": 39.1271, "lon": -75.5606, "tsys": null, "pw": "", "name": "Kent County", "st": "DE"}, "10003": {"bei": null, "bp": null, "t": null, "s": 0.0, "p": 0.07, "c": 0.25, "pop": 570567, "cpop": 121453, "lat": 39.6789, "lon": -75.6347, "tsys": null, "pw": "", "name": "New Castle County", "st": "DE"}, "10005": {"bei": null, "bp": null, "t": null, "s": 1.0, "p": 0.26, "c": 1.0, "pop": 240668, "cpop": 43517, "lat": 38.6643, "lon": -75.3333, "tsys": null, "pw": "", "name": "Sussex County", "st": "DE"}, "11001": {"bei": null, "bp": null, "t": null, "s": 0.0, "p": 0.0, "c": 0.0, "pop": 670587, "cpop": 124056, "lat": 38.9097, "lon": -77.0123, "tsys": null, "pw": "", "name": "District of Columbia", "st": "DC"}, "12001": {"bei": null, "bp": null, "t": null, "s": 0.35, "p": 0.42, "c": 0.0, "pop": 279729, "cpop": 49377, "lat": 29.662, "lon": -82.3933, "tsys": null, "pw": "", "name": "Alachua County", "st": "FL"}, "12003": {"bei": null, "bp": null, "t": null, "s": 0.85, "p": 0.6, "c": 1.0, "pop": 27969, "cpop": 6575, "lat": 30.2918, "lon": -82.198, "tsys": null, "pw": "", "name": "Baker County", "st": "FL"}, "12005": {"bei": null, "bp": null, "t": null, "s": 0.88, "p": 0.9, "c": 1.0, "pop": 181055, "cpop": 37708, "lat": 30.2115, "lon": -85.6662, "tsys": null, "pw": "", "name": "Bay County", "st": "FL"}, "12007": {"bei": null, "bp": null, "t": null, "s": 0.48, "p": 0.51, "c": 0.28, "pop": 27816, "cpop": 5474, "lat": 29.9594, "lon": -82.1359, "tsys": null, "pw": "", "name": "Bradford County", "st": "FL"}, "12009": {"bei": null, "bp": null, "t": null, "s": 0.84, "p": 0.38, "c": 1.0, "pop": 610723, "cpop": 110393, "lat": 28.2208, "lon": -80.6928, "tsys": null, "pw": "", "name": "Brevard County", "st": "FL"}, "12011": {"bei": null, "bp": null, "t": null, "s": 0.0, "p": 0.03, "c": 0.52, "pop": 1940907, "cpop": 405002, "lat": 26.1354, "lon": -80.2272, "tsys": null, "pw": "", "name": "Broward County", "st": "FL"}, "12013": {"bei": null, "bp": null, "t": null, "s": 0.96, "p": 0.89, "c": 1.0, "pop": 13753, "cpop": 2683, "lat": 30.4148, "lon": -85.1413, "tsys": null, "pw": "", "name": "Calhoun County", "st": "FL"}, "12015": {"bei": null, "bp": null, "t": null, "s": 0.89, "p": 0.22, "c": 1.0, "pop": 189900, "cpop": 22419, "lat": 26.9504, "lon": -82.1139, "tsys": null, "pw": "", "name": "Charlotte County", "st": "FL"}, "12017": {"bei": null, "bp": null, "t": null, "s": 0.89, "p": 0.19, "c": 1.0, "pop": 155173, "cpop": 22889, "lat": 28.8647, "lon": -82.4576, "tsys": null, "pw": "", "name": "Citrus County", "st": "FL"}, "12019": {"bei": null, "bp": null, "t": null, "s": 0.73, "p": 0.56, "c": 1.0, "pop": 219650, "cpop": 50346, "lat": 30.0859, "lon": -81.8011, "tsys": null, "pw": "", "name": "Clay County", "st": "FL"}, "12021": {"bei": null, "bp": null, "t": null, "s": 0.96, "p": 0.32, "c": 1.0, "pop": 380221, "cpop": 63332, "lat": 26.2038, "lon": -81.6852, "tsys": null, "pw": "", "name": "Collier County", "st": "FL"}, "12023": {"bei": null, "bp": null, "t": null, "s": 0.81, "p": 0.56, "c": 0.64, "pop": 69832, "cpop": 15466, "lat": 30.1443, "lon": -82.6671, "tsys": null, "pw": "", "name": "Columbia County", "st": "FL"}, "12027": {"bei": null, "bp": null, "t": null, "s": 0.93, "p": 0.19, "c": 1.0, "pop": 34258, "cpop": 6261, "lat": 27.1834, "lon": -81.8433, "tsys": null, "pw": "", "name": "DeSoto County", "st": "FL"}, "12029": {"bei": null, "bp": null, "t": null, "s": 1.0, "p": 0.44, "c": 1.0, "pop": 16737, "cpop": 2985, "lat": 29.6427, "lon": -83.1144, "tsys": null, "pw": "", "name": "Dixie County", "st": "FL"}, "12031": {"bei": null, "bp": null, "t": null, "s": 0.63, "p": 0.63, "c": 1.0, "pop": 995708, "cpop": 222816, "lat": 30.2982, "lon": -81.6218, "tsys": null, "pw": "", "name": "Duval County", "st": "FL"}, "12033": {"bei": null, "bp": null, "t": null, "s": 0.72, "p": 0.79, "c": 1.0, "pop": 321296, "cpop": 66849, "lat": 30.4855, "lon": -87.2776, "tsys": null, "pw": "", "name": "Escambia County", "st": "FL"}, "12035": {"bei": null, "bp": null, "t": null, "s": 0.93, "p": 0.47, "c": 1.0, "pop": 117515, "cpop": 19306, "lat": 29.5216, "lon": -81.2272, "tsys": null, "pw": "", "name": "Flagler County", "st": "FL"}, "12037": {"bei": null, "bp": null, "t": null, "s": 1.0, "p": 0.72, "c": 1.0, "pop": 12276, "cpop": 1932, "lat": 29.7853, "lon": -84.8312, "tsys": null, "pw": "", "name": "Franklin County", "st": "FL"}, "12039": {"bei": null, "bp": null, "t": null, "s": 0.93, "p": 0.83, "c": 1.0, "pop": 43746, "cpop": 9673, "lat": 30.5861, "lon": -84.5662, "tsys": null, "pw": "", "name": "Gadsden County", "st": "FL"}, "12041": {"bei": null, "bp": null, "t": null, "s": 0.63, "p": 0.44, "c": 0.28, "pop": 18070, "cpop": 3591, "lat": 29.725, "lon": -82.7993, "tsys": null, "pw": "", "name": "Gilchrist County", "st": "FL"}, "12043": {"bei": null, "bp": null, "t": null, "s": 1.0, "p": 0.35, "c": 1.0, "pop": 12179, "cpop": 1763, "lat": 26.9618, "lon": -81.2153, "tsys": null, "pw": "", "name": "Glades County", "st": "FL"}, "12045": {"bei": null, "bp": null, "t": null, "s": 0.93, "p": 0.82, "c": 1.0, "pop": 15002, "cpop": 2242, "lat": 29.9418, "lon": -85.2638, "tsys": null, "pw": "", "name": "Gulf County", "st": "FL"}, "12047": {"bei": null, "bp": null, "t": null, "s": 1.0, "p": 0.67, "c": 1.0, "pop": 13492, "cpop": 2714, "lat": 30.4987, "lon": -82.9928, "tsys": null, "pw": "", "name": "Hamilton County", "st": "FL"}, "12049": {"bei": null, "bp": null, "t": null, "s": 0.96, "p": 0.13, "c": 1.0, "pop": 25528, "cpop": 6490, "lat": 27.543, "lon": -81.8135, "tsys": null, "pw": "", "name": "Hardee County", "st": "FL"}, "12051": {"bei": null, "bp": null, "t": null, "s": 0.96, "p": 0.29, "c": 1.0, "pop": 39902, "cpop": 10129, "lat": 26.7011, "lon": -81.2195, "tsys": null, "pw": "", "name": "Hendry County", "st": "FL"}, "12053": {"bei": null, "bp": null, "t": null, "s": 0.7, "p": 0.09, "c": 0.76, "pop": 196621, "cpop": 36103, "lat": 28.5078, "lon": -82.4962, "tsys": null, "pw": "", "name": "Hernando County", "st": "FL"}, "12055": {"bei": null, "bp": null, "t": null, "s": 1.0, "p": 0.22, "c": 1.0, "pop": 102339, "cpop": 17157, "lat": 27.4639, "lon": -81.4373, "tsys": null, "pw": "", "name": "Highlands County", "st": "FL"}, "12057": {"bei": null, "bp": null, "t": null, "s": 0.0, "p": 0.0, "c": 0.04, "pop": 1468560, "cpop": 320513, "lat": 27.9675, "lon": -82.3996, "tsys": null, "pw": "", "name": "Hillsborough County", "st": "FL"}, "12059": {"bei": null, "bp": null, "t": null, "s": 0.96, "p": 0.72, "c": 1.0, "pop": 19529, "cpop": 3996, "lat": 30.8473, "lon": -85.7603, "tsys": null, "pw": "", "name": "Holmes County", "st": "FL"}, "12061": {"bei": null, "bp": null, "t": null, "s": 0.89, "p": 0.44, "c": 1.0, "pop": 160986, "cpop": 24668, "lat": 27.6675, "lon": -80.4435, "tsys": null, "pw": "", "name": "Indian River County", "st": "FL"}, "12063": {"bei": null, "bp": null, "t": null, "s": 0.96, "p": 0.78, "c": 1.0, "pop": 47704, "cpop": 8922, "lat": 30.7998, "lon": -85.2187, "tsys": null, "pw": "", "name": "Jackson County", "st": "FL"}, "12065": {"bei": null, "bp": null, "t": null, "s": 0.93, "p": 0.73, "c": 1.0, "pop": 14458, "cpop": 2480, "lat": 30.4643, "lon": -83.8866, "tsys": null, "pw": "", "name": "Jefferson County", "st": "FL"}, "12067": {"bei": null, "bp": null, "t": null, "s": 1.0, "p": 0.55, "c": 1.0, "pop": 8107, "cpop": 1476, "lat": 30.0442, "lon": -83.1992, "tsys": null, "pw": "", "name": "Lafayette County", "st": "FL"}, "12069": {"bei": null, "bp": null, "t": null, "s": 0.48, "p": 0.21, "c": 0.73, "pop": 386829, "cpop": 73351, "lat": 28.7174, "lon": -81.7507, "tsys": null, "pw": "", "name": "Lake County", "st": "FL"}, "12071": {"bei": null, "bp": null, "t": null, "s": 0.88, "p": 0.34, "c": 1.0, "pop": 772902, "cpop": 132836, "lat": 26.5779, "lon": -81.8493, "tsys": null, "pw": "", "name": "Lee County", "st": "FL"}, "12073": {"bei": null, "bp": null, "t": null, "s": 0.88, "p": 0.77, "c": 1.0, "pop": 294128, "cpop": 54119, "lat": 30.4664, "lon": -84.2664, "tsys": null, "pw": "", "name": "Leon County", "st": "FL"}, "12075": {"bei": null, "bp": null, "t": null, "s": 0.59, "p": 0.34, "c": 0.28, "pop": 43268, "cpop": 8430, "lat": 29.3733, "lon": -82.6601, "tsys": null, "pw": "", "name": "Levy County", "st": "FL"}, "12077": {"bei": null, "bp": null, "t": null, "s": 0.96, "p": 0.83, "c": 1.0, "pop": 7704, "cpop": 1478, "lat": 30.3101, "lon": -84.9147, "tsys": null, "pw": "", "name": "Liberty County", "st": "FL"}, "12079": {"bei": null, "bp": null, "t": null, "s": 1.0, "p": 0.68, "c": 1.0, "pop": 17986, "cpop": 3239, "lat": 30.4532, "lon": -83.427, "tsys": null, "pw": "", "name": "Madison County", "st": "FL"}, "12081": {"bei": null, "bp": null, "t": null, "s": 0.06, "p": 0.06, "c": 0.23, "pop": 405069, "cpop": 71417, "lat": 27.4793, "lon": -82.521, "tsys": null, "pw": "", "name": "Manatee County", "st": "FL"}, "12083": {"bei": null, "bp": null, "t": null, "s": 0.69, "p": 0.28, "c": 0.64, "pop": 378225, "cpop": 70465, "lat": 29.1338, "lon": -82.1236, "tsys": null, "pw": "", "name": "Marion County", "st": "FL"}, "12085": {"bei": null, "bp": null, "t": null, "s": 0.85, "p": 0.31, "c": 1.0, "pop": 159399, "cpop": 25580, "lat": 27.142, "lon": -80.2441, "tsys": null, "pw": "", "name": "Martin County", "st": "FL"}, "12086": {"bei": null, "bp": null, "t": null, "s": 0.0, "p": 0.0, "c": 0.2, "pop": 2688237, "cpop": 540286, "lat": 25.7693, "lon": -80.3016, "tsys": null, "pw": "", "name": "Miami-Dade County", "st": "FL"}, "12087": {"bei": null, "bp": null, "t": null, "s": 1.0, "p": 0.32, "c": 1.0, "pop": 82044, "cpop": 12862, "lat": 24.7588, "lon": -81.2579, "tsys": null, "pw": "", "name": "Monroe County", "st": "FL"}, "12089": {"bei": null, "bp": null, "t": null, "s": 0.81, "p": 0.67, "c": 1.0, "pop": 91538, "cpop": 17888, "lat": 30.617, "lon": -81.6444, "tsys": null, "pw": "", "name": "Nassau County", "st": "FL"}, "12091": {"bei": null, "bp": null, "t": null, "s": 0.8, "p": 0.76, "c": 1.0, "pop": 212021, "cpop": 47292, "lat": 30.5537, "lon": -86.568, "tsys": null, "pw": "", "name": "Okaloosa County", "st": "FL"}, "12093": {"bei": null, "bp": null, "t": null, "s": 0.96, "p": 0.38, "c": 1.0, "pop": 39870, "cpop": 8515, "lat": 27.2775, "lon": -80.8286, "tsys": null, "pw": "", "name": "Okeechobee County", "st": "FL"}, "12095": {"bei": null, "bp": null, "t": null, "s": 0.23, "p": 0.24, "c": 0.55, "pop": 1427403, "cpop": 308436, "lat": 28.529, "lon": -81.3871, "tsys": null, "pw": "", "name": "Orange County", "st": "FL"}, "12097": {"bei": null, "bp": null, "t": null, "s": 0.43, "p": 0.21, "c": 0.73, "pop": 393745, "cpop": 94791, "lat": 28.2679, "lon": -81.3853, "tsys": null, "pw": "", "name": "Osceola County", "st": "FL"}, "12099": {"bei": null, "bp": null, "t": null, "s": 0.57, "p": 0.16, "c": 1.0, "pop": 1494805, "cpop": 281121, "lat": 26.6155, "lon": -80.1457, "tsys": null, "pw": "", "name": "Palm Beach County", "st": "FL"}, "12101": {"bei": null, "bp": null, "t": null, "s": 0.36, "p": 0.02, "c": 0.52, "pop": 569211, "cpop": 114850, "lat": 28.258, "lon": -82.5008, "tsys": null, "pw": "", "name": "Pasco County", "st": "FL"}, "12103": {"bei": null, "bp": null, "t": null, "s": 0.04, "p": 0.0, "c": 0.2, "pop": 959918, "cpop": 150931, "lat": 27.9006, "lon": -82.7262, "tsys": null, "pw": "", "name": "Pinellas County", "st": "FL"}, "12105": {"bei": null, "bp": null, "t": null, "s": 0.4, "p": 0.1, "c": 0.63, "pop": 736229, "cpop": 161066, "lat": 28.0433, "lon": -81.7889, "tsys": null, "pw": "", "name": "Polk County", "st": "FL"}, "12107": {"bei": null, "bp": null, "t": null, "s": 0.74, "p": 0.44, "c": 0.64, "pop": 73604, "cpop": 15663, "lat": 29.6094, "lon": -81.7142, "tsys": null, "pw": "", "name": "Putnam County", "st": "FL"}, "12109": {"bei": null, "bp": null, "t": null, "s": 0.78, "p": 0.56, "c": 1.0, "pop": 278722, "cpop": 59977, "lat": 29.9885, "lon": -81.4363, "tsys": null, "pw": "", "name": "St. Johns County", "st": "FL"}, "12111": {"bei": null, "bp": null, "t": null, "s": 0.84, "p": 0.37, "c": 1.0, "pop": 334682, "cpop": 65662, "lat": 27.3311, "lon": -80.3583, "tsys": null, "pw": "", "name": "St. Lucie County", "st": "FL"}, "12113": {"bei": null, "bp": null, "t": null, "s": 0.68, "p": 0.77, "c": 1.0, "pop": 188994, "cpop": 41211, "lat": 30.5482, "lon": -87.0428, "tsys": null, "pw": "", "name": "Santa Rosa County", "st": "FL"}, "12115": {"bei": null, "bp": null, "t": null, "s": 0.52, "p": 0.14, "c": 0.68, "pop": 439392, "cpop": 61315, "lat": 27.2022, "lon": -82.4134, "tsys": null, "pw": "", "name": "Sarasota County", "st": "FL"}, "12117": {"bei": null, "bp": null, "t": null, "s": 0.15, "p": 0.29, "c": 0.55, "pop": 471321, "cpop": 97621, "lat": 28.7007, "lon": -81.3096, "tsys": null, "pw": "", "name": "Seminole County", "st": "FL"}, "12119": {"bei": null, "bp": null, "t": null, "s": 0.74, "p": 0.2, "c": 0.87, "pop": 131832, "cpop": 9405, "lat": 28.831, "lon": -82.0264, "tsys": null, "pw": "", "name": "Sumter County", "st": "FL"}, "12121": {"bei": null, "bp": null, "t": null, "s": 1.0, "p": 0.59, "c": 1.0, "pop": 43881, "cpop": 9317, "lat": 30.2183, "lon": -82.9902, "tsys": null, "pw": "", "name": "Suwannee County", "st": "FL"}, "12123": {"bei": null, "bp": null, "t": null, "s": 1.0, "p": 0.59, "c": 1.0, "pop": 21421, "cpop": 4188, "lat": 30.0677, "lon": -83.594, "tsys": null, "pw": "", "name": "Taylor County", "st": "FL"}, "12125": {"bei": null, "bp": null, "t": null, "s": 0.59, "p": 0.53, "c": 0.28, "pop": 15524, "cpop": 3343, "lat": 30.0496, "lon": -82.3742, "tsys": null, "pw": "", "name": "Union County", "st": "FL"}, "12127": {"bei": null, "bp": null, "t": null, "s": 0.62, "p": 0.39, "c": 0.87, "pop": 558520, "cpop": 97528, "lat": 29.0711, "lon": -81.132, "tsys": null, "pw": "", "name": "Volusia County", "st": "FL"}, "12129": {"bei": null, "bp": null, "t": null, "s": 0.93, "p": 0.72, "c": 1.0, "pop": 33732, "cpop": 6949, "lat": 30.1818, "lon": -84.3454, "tsys": null, "pw": "", "name": "Wakulla County", "st": "FL"}, "12131": {"bei": null, "bp": null, "t": null, "s": 0.89, "p": 0.78, "c": 1.0, "pop": 76618, "cpop": 15576, "lat": 30.5417, "lon": -86.1916, "tsys": null, "pw": "", "name": "Walton County", "st": "FL"}, "12133": {"bei": null, "bp": null, "t": null, "s": 0.93, "p": 0.79, "c": 1.0, "pop": 25014, "cpop": 4991, "lat": 30.6361, "lon": -85.6418, "tsys": null, "pw": "", "name": "Washington County", "st": "FL"}, "13001": {"bei": null, "bp": null, "t": null, "s": 1.0, "p": 0.42, "c": 1.0, "pop": 18441, "cpop": 4547, "lat": 31.7701, "lon": -82.324, "tsys": null, "pw": "", "name": "Appling County", "st": "GA"}, "13003": {"bei": null, "bp": null, "t": null, "s": 1.0, "p": 0.58, "c": 1.0, "pop": 8265, "cpop": 2123, "lat": 31.2847, "lon": -82.8873, "tsys": null, "pw": "", "name": "Atkinson County", "st": "GA"}, "13005": {"bei": null, "bp": null, "t": null, "s": 1.0, "p": 0.48, "c": 1.0, "pop": 11138, "cpop": 2848, "lat": 31.5522, "lon": -82.4924, "tsys": null, "pw": "", "name": "Bacon County", "st": "GA"}, "13007": {"bei": null, "bp": null, "t": null, "s": 1.0, "p": 0.62, "c": 1.0, "pop": 2878, "cpop": 553, "lat": 31.3266, "lon": -84.4279, "tsys": null, "pw": "", "name": "Baker County", "st": "GA"}, "13009": {"bei": null, "bp": null, "t": null, "s": 0.93, "p": 0.23, "c": 1.0, "pop": 43778, "cpop": 8243, "lat": 33.0865, "lon": -83.2532, "tsys": null, "pw": "", "name": "Baldwin County", "st": "GA"}, "13011": {"bei": null, "bp": null, "t": null, "s": 0.81, "p": 0.2, "c": 1.0, "pop": 18381, "cpop": 3958, "lat": 34.3532, "lon": -83.498, "tsys": null, "pw": "", "name": "Banks County", "st": "GA"}, "13013": {"bei": null, "bp": null, "t": null, "s": 0.52, "p": 0.1, "c": 1.0, "pop": 84399, "cpop": 21481, "lat": 33.9949, "lon": -83.7284, "tsys": null, "pw": "", "name": "Barrow County", "st": "GA"}, "13015": {"bei": null, "bp": null, "t": null, "s": 0.41, "p": 0.04, "c": 0.2, "pop": 109410, "cpop": 25821, "lat": 34.2093, "lon": -84.8281, "tsys": null, "pw": "", "name": "Bartow County", "st": "GA"}, "13017": {"bei": null, "bp": null, "t": null, "s": 1.0, "p": 0.5, "c": 1.0, "pop": 17169, "cpop": 4215, "lat": 31.7244, "lon": -83.2463, "tsys": null, "pw": "", "name": "Ben Hill County", "st": "GA"}, "13019": {"bei": null, "bp": null, "t": null, "s": 1.0, "p": 0.62, "c": 1.0, "pop": 18187, "cpop": 4362, "lat": 31.2422, "lon": -83.2315, "tsys": null, "pw": "", "name": "Berrien County", "st": "GA"}, "13021": {"bei": null, "bp": null, "t": null, "s": 0.88, "p": 0.24, "c": 1.0, "pop": 156554, "cpop": 37914, "lat": 32.8332, "lon": -83.6941, "tsys": null, "pw": "", "name": "Bibb County", "st": "GA"}, "13023": {"bei": 64.9, "bp": 62.1, "t": 0.29, "s": 0.96, "p": 0.35, "c": 1.0, "pop": 12413, "cpop": 2375, "lat": 32.4174, "lon": -83.338, "tsys": 156.5, "pw": "direct", "name": "Bleckley County", "st": "GA"}, "13025": {"bei": 91.5, "bp": 87.2, "t": 1.0, "s": 1.0, "p": 0.58, "c": 1.0, "pop": 18105, "cpop": 4089, "lat": 31.2002, "lon": -81.9661, "tsys": 480.0, "pw": "transfer", "name": "Brantley County", "st": "GA"}, "13027": {"bei": 71.8, "bp": 69.7, "t": 0.23, "s": 1.0, "p": 0.75, "c": 1.0, "pop": 16275, "cpop": 3505, "lat": 30.8421, "lon": -83.537, "tsys": 126.2, "pw": "direct", "name": "Brooks County", "st": "GA"}, "13029": {"bei": 61.9, "bp": 55.1, "t": 0.23, "s": 0.93, "p": 0.34, "c": 1.0, "pop": 44995, "cpop": 13160, "lat": 31.9475, "lon": -81.3446, "tsys": 129.4, "pw": "direct", "name": "Bryan County", "st": "GA"}, "13031": {"bei": 60.2, "bp": 49.8, "t": 0.18, "s": 1.0, "p": 0.24, "c": 1.0, "pop": 79829, "cpop": 15917, "lat": 32.4163, "lon": -81.7556, "tsys": 105.0, "pw": "direct", "name": "Bulloch County", "st": "GA"}, "13033": {"bei": 16.0, "bp": 7.2, "t": 0.04, "s": 0.56, "p": 0.04, "c": 0.0, "pop": 24337, "cpop": 6091, "lat": 33.0871, "lon": -81.9982, "tsys": 40.5, "pw": "direct", "name": "Burke County", "st": "GA"}, "13035": {"bei": 47.1, "bp": 21.9, "t": 0.06, "s": 0.74, "p": 0.09, "c": 1.0, "pop": 25522, "cpop": 5239, "lat": 33.2919, "lon": -83.9703, "tsys": 49.1, "pw": "direct", "name": "Butts County", "st": "GA"}, "13037": {"bei": 91.3, "bp": 86.6, "t": 1.0, "s": 1.0, "p": 0.56, "c": 1.0, "pop": 5594, "cpop": 940, "lat": 31.5245, "lon": -84.654, "tsys": 480.0, "pw": "transfer", "name": "Calhoun County", "st": "GA"}, "13039": {"bei": 66.4, "bp": 64.7, "t": 0.19, "s": 0.93, "p": 0.62, "c": 1.0, "pop": 55105, "cpop": 13245, "lat": 30.8106, "lon": -81.6376, "tsys": 111.5, "pw": "direct", "name": "Camden County", "st": "GA"}, "13043": {"bei": 60.3, "bp": 50.3, "t": 0.19, "s": 1.0, "p": 0.23, "c": 1.0, "pop": 10946, "cpop": 2678, "lat": 32.4169, "lon": -82.0728, "tsys": 109.4, "pw": "direct", "name": "Candler County", "st": "GA"}, "13045": {"bei": 32.8, "bp": 13.8, "t": 0.05, "s": 0.61, "p": 0.05, "c": 0.6, "pop": 120060, "cpop": 28371, "lat": 33.626, "lon": -85.0407, "tsys": 44.9, "pw": "direct", "name": "Carroll County", "st": "GA"}, "13047": {"bei": 56.7, "bp": 36.1, "t": 0.15, "s": 0.88, "p": 0.26, "c": 1.0, "pop": 68052, "cpop": 15279, "lat": 34.9257, "lon": -85.1717, "tsys": 92.5, "pw": "direct", "name": "Catoosa County", "st": "GA"}, "13049": {"bei": 69.4, "bp": 68.2, "t": 0.22, "s": 0.96, "p": 0.69, "c": 1.0, "pop": 12547, "cpop": 2295, "lat": 30.7923, "lon": -82.0967, "tsys": 122.1, "pw": "direct", "name": "Charlton County", "st": "GA"}, "13051": {"bei": 58.9, "bp": 44.1, "t": 0.21, "s": 0.88, "p": 0.28, "c": 1.0, "pop": 296266, "cpop": 61607, "lat": 32.0392, "lon": -81.1366, "tsys": 118.1, "pw": "direct", "name": "Chatham County", "st": "GA"}, "13053": {"bei": 83.9, "bp": 73.2, "t": 1.0, "s": 0.88, "p": 0.35, "c": 1.0, "pop": 9402, "cpop": 2072, "lat": 32.3379, "lon": -84.886, "tsys": 480.0, "pw": "transfer", "name": "Chattahoochee County", "st": "GA"}, "13055": {"bei": 55.4, "bp": 31.6, "t": 0.15, "s": 0.89, "p": 0.18, "c": 1.0, "pop": 24902, "cpop": 5543, "lat": 34.4906, "lon": -85.3436, "tsys": 92.1, "pw": "direct", "name": "Chattooga County", "st": "GA"}, "13057": {"bei": 6.4, "bp": 4.7, "t": 0.02, "s": 0.01, "p": 0.02, "c": 0.2, "pop": 268567, "cpop": 63058, "lat": 34.1727, "lon": -84.4947, "tsys": 32.3, "pw": "direct", "name": "Cherokee County", "st": "GA"}, "13059": {"bei": 51.8, "bp": 25.3, "t": 0.11, "s": 0.8, "p": 0.17, "c": 1.0, "pop": 128864, "cpop": 21777, "lat": 33.9492, "lon": -83.3798, "tsys": 73.4, "pw": "direct", "name": "Clarke County", "st": "GA"}, "13061": {"bei": 90.1, "bp": 84.5, "t": 1.0, "s": 0.96, "p": 0.55, "c": 1.0, "pop": 2855, "cpop": 660, "lat": 31.6198, "lon": -84.9926, "tsys": 480.0, "pw": "transfer", "name": "Clay County", "st": "GA"}, "13063": {"bei": 5.0, "bp": 4.4, "t": 0.0, "s": 0.0, "p": 0.0, "c": 0.2, "pop": 296312, "cpop": 81330, "lat": 33.5501, "lon": -84.3631, "tsys": 17.9, "pw": "direct", "name": "Clayton County", "st": "GA"}, "13065": {"bei": 92.8, "bp": 89.4, "t": 1.0, "s": 1.0, "p": 0.64, "c": 1.0, "pop": 6713, "cpop": 1682, "lat": 31.0264, "lon": -82.7552, "tsys": 480.0, "pw": "transfer", "name": "Clinch County", "st": "GA"}, "13067": {"bei": 0.0, "bp": 1.0, "t": 0.0, "s": 0.0, "p": 0.0, "c": 0.0, "pop": 765813, "cpop": 175215, "lat": 33.9413, "lon": -84.5582, "tsys": 11.8, "pw": "direct", "name": "Cobb County", "st": "GA"}, "13069": {"bei": 90.3, "bp": 84.9, "t": 1.0, "s": 1.0, "p": 0.51, "c": 1.0, "pop": 43056, "cpop": 10480, "lat": 31.5109, "lon": -82.8346, "tsys": 480.0, "pw": "transfer", "name": "Coffee County", "st": "GA"}, "13071": {"bei": 93.4, "bp": 90.3, "t": 1.0, "s": 1.0, "p": 0.67, "c": 1.0, "pop": 45813, "cpop": 11820, "lat": 31.179, "lon": -83.7655, "tsys": 480.0, "pw": "transfer", "name": "Colquitt County", "st": "GA"}, "13073": {"bei": 6.5, "bp": 4.8, "t": 0.0, "s": 0.26, "p": 0.0, "c": 0.0, "pop": 156921, "cpop": 39255, "lat": 33.517, "lon": -82.1789, "tsys": 16.6, "pw": "direct", "name": "Columbia County", "st": "GA"}, "13075": {"bei": 93.2, "bp": 89.9, "t": 1.0, "s": 1.0, "p": 0.66, "c": 1.0, "pop": 17242, "cpop": 4348, "lat": 31.1492, "lon": -83.4159, "tsys": 480.0, "pw": "transfer", "name": "Cook County", "st": "GA"}, "13077": {"bei": 33.5, "bp": 14.3, "t": 0.03, "s": 0.65, "p": 0.07, "c": 0.6, "pop": 147449, "cpop": 34729, "lat": 33.3782, "lon": -84.7331, "tsys": 37.8, "pw": "direct", "name": "Coweta County", "st": "GA"}, "13079": {"bei": 57.5, "bp": 38.7, "t": 0.15, "s": 0.93, "p": 0.24, "c": 1.0, "pop": 12156, "cpop": 2478, "lat": 32.7109, "lon": -83.9559, "tsys": 91.8, "pw": "direct", "name": "Crawford County", "st": "GA"}, "13081": {"bei": 89.2, "bp": 82.8, "t": 1.0, "s": 1.0, "p": 0.46, "c": 1.0, "pop": 20255, "cpop": 4763, "lat": 31.9451, "lon": -83.7666, "tsys": 480.0, "pw": "transfer", "name": "Crisp County", "st": "GA"}, "13083": {"bei": 60.5, "bp": 50.8, "t": 0.22, "s": 0.93, "p": 0.28, "c": 1.0, "pop": 16239, "cpop": 3156, "lat": 34.8602, "lon": -85.4994, "tsys": 124.0, "pw": "direct", "name": "Dade County", "st": "GA"}, "13085": {"bei": 49.3, "bp": 23.4, "t": 0.08, "s": 0.78, "p": 0.12, "c": 1.0, "pop": 27355, "cpop": 5453, "lat": 34.4141, "lon": -84.1155, "tsys": 58.1, "pw": "direct", "name": "Dawson County", "st": "GA"}, "13087": {"bei": 93.9, "bp": 90.9, "t": 1.0, "s": 0.96, "p": 0.74, "c": 1.0, "pop": 29063, "cpop": 7068, "lat": 30.8854, "lon": -84.5557, "tsys": 480.0, "pw": "transfer", "name": "Decatur County", "st": "GA"}, "13089": {"bei": 5.0, "bp": 4.4, "t": 0.0, "s": 0.0, "p": 0.0, "c": 0.2, "pop": 761209, "cpop": 173012, "lat": 33.7899, "lon": -84.2456, "tsys": 19.7, "pw": "direct", "name": "DeKalb County", "st": "GA"}, "13091": {"bei": 66.1, "bp": 64.2, "t": 0.29, "s": 1.0, "p": 0.37, "c": 1.0, "pop": 19977, "cpop": 3856, "lat": 32.2157, "lon": -83.1602, "tsys": 154.9, "pw": "direct", "name": "Dodge County", "st": "GA"}, "13093": {"bei": 88.0, "bp": 80.2, "t": 1.0, "s": 1.0, "p": 0.4, "c": 1.0, "pop": 11236, "cpop": 1824, "lat": 32.1704, "lon": -83.7723, "tsys": 480.0, "pw": "transfer", "name": "Dooly County", "st": "GA"}, "13095": {"bei": 91.0, "bp": 86.3, "t": 1.0, "s": 1.0, "p": 0.55, "c": 1.0, "pop": 85038, "cpop": 20362, "lat": 31.5717, "lon": -84.1709, "tsys": 480.0, "pw": "transfer", "name": "Dougherty County", "st": "GA"}, "13097": {"bei": 2.5, "bp": 3.7, "t": 0.0, "s": 0.1, "p": 0.0, "c": 0.0, "pop": 144735, "cpop": 36951, "lat": 33.7234, "lon": -84.7313, "tsys": 18.5, "pw": "direct", "name": "Douglas County", "st": "GA"}, "13099": {"bei": 90.6, "bp": 85.7, "t": 1.0, "s": 0.93, "p": 0.62, "c": 1.0, "pop": 10753, "cpop": 2622, "lat": 31.3392, "lon": -84.9217, "tsys": 480.0, "pw": "transfer", "name": "Early County", "st": "GA"}, "13101": {"bei": 72.2, "bp": 69.9, "t": 0.25, "s": 1.0, "p": 0.73, "c": 1.0, "pop": 3707, "cpop": 884, "lat": 30.7328, "lon": -83.0026, "tsys": 138.2, "pw": "direct", "name": "Echols County", "st": "GA"}, "13103": {"bei": 60.4, "bp": 50.4, "t": 0.22, "s": 0.93, "p": 0.28, "c": 1.0, "pop": 65314, "cpop": 17258, "lat": 32.2925, "lon": -81.2992, "tsys": 122.8, "pw": "direct", "name": "Effingham County", "st": "GA"}, "13105": {"bei": 56.8, "bp": 36.2, "t": 0.13, "s": 0.96, "p": 0.18, "c": 1.0, "pop": 19570, "cpop": 4269, "lat": 34.1132, "lon": -82.8672, "tsys": 83.6, "pw": "direct", "name": "Elbert County", "st": "GA"}, "13107": {"bei": 58.6, "bp": 43.3, "t": 0.16, "s": 1.0, "p": 0.19, "c": 1.0, "pop": 22907, "cpop": 5717, "lat": 32.5907, "lon": -82.3125, "tsys": 96.5, "pw": "direct", "name": "Emanuel County", "st": "GA"}, "13109": {"bei": 63.2, "bp": 58.1, "t": 0.23, "s": 1.0, "p": 0.31, "c": 1.0, "pop": 10759, "cpop": 2810, "lat": 32.1439, "lon": -81.8954, "tsys": 128.5, "pw": "direct", "name": "Evans County", "st": "GA"}, "13111": {"bei": 59.0, "bp": 44.8, "t": 0.15, "s": 1.0, "p": 0.23, "c": 1.0, "pop": 25436, "cpop": 4021, "lat": 34.8929, "lon": -84.3169, "tsys": 89.6, "pw": "direct", "name": "Fannin County", "st": "GA"}, "13113": {"bei": 27.4, "bp": 11.6, "t": 0.04, "s": 0.43, "p": 0.03, "c": 0.6, "pop": 119259, "cpop": 27183, "lat": 33.4266, "lon": -84.5134, "tsys": 41.5, "pw": "direct", "name": "Fayette County", "st": "GA"}, "13115": {"bei": 39.0, "bp": 17.3, "t": 0.11, "s": 0.75, "p": 0.11, "c": 0.6, "pop": 98541, "cpop": 22300, "lat": 34.2571, "lon": -85.1863, "tsys": 71.6, "pw": "direct", "name": "Floyd County", "st": "GA"}, "13117": {"bei": 25.9, "bp": 11.0, "t": 0.04, "s": 0.34, "p": 0.07, "c": 0.6, "pop": 253225, "cpop": 66879, "lat": 34.1922, "lon": -84.1504, "tsys": 39.3, "pw": "direct", "name": "Forsyth County", "st": "GA"}, "13119": {"bei": 57.3, "bp": 37.9, "t": 0.13, "s": 0.93, "p": 0.26, "c": 1.0, "pop": 23480, "cpop": 5101, "lat": 34.377, "lon": -83.1933, "tsys": 83.7, "pw": "direct", "name": "Franklin County", "st": "GA"}, "13121": {"bei": 0.0, "bp": 1.0, "t": 0.0, "s": 0.0, "p": 0.0, "c": 0.0, "pop": 1061944, "cpop": 224381, "lat": 33.8326, "lon": -84.3976, "tsys": 10.4, "pw": "direct", "name": "Fulton County", "st": "GA"}, "13123": {"bei": 55.3, "bp": 31.2, "t": 0.1, "s": 0.96, "p": 0.16, "c": 1.0, "pop": 31519, "cpop": 5933, "lat": 34.6738, "lon": -84.4939, "tsys": 68.2, "pw": "direct", "name": "Gilmer County", "st": "GA"}, "13125": {"bei": 23.1, "bp": 9.8, "t": 0.07, "s": 0.78, "p": 0.07, "c": 0.0, "pop": 2903, "cpop": 622, "lat": 33.2275, "lon": -82.6069, "tsys": 55.7, "pw": "direct", "name": "Glascock County", "st": "GA"}, "13127": {"bei": 90.2, "bp": 84.8, "t": 1.0, "s": 1.0, "p": 0.51, "c": 1.0, "pop": 84566, "cpop": 17781, "lat": 31.2053, "lon": -81.4825, "tsys": 480.0, "pw": "transfer", "name": "Glynn County", "st": "GA"}, "13129": {"bei": 51.5, "bp": 25.1, "t": 0.09, "s": 0.85, "p": 0.13, "c": 1.0, "pop": 57785, "cpop": 13550, "lat": 34.4993, "lon": -84.9134, "tsys": 63.3, "pw": "direct", "name": "Gordon County", "st": "GA"}, "13131": {"bei": 93.0, "bp": 89.6, "t": 1.0, "s": 0.93, "p": 0.74, "c": 1.0, "pop": 26075, "cpop": 6385, "lat": 30.8834, "lon": -84.2063, "tsys": 480.0, "pw": "transfer", "name": "Grady County", "st": "GA"}, "13133": {"bei": 55.7, "bp": 32.3, "t": 0.1, "s": 0.96, "p": 0.18, "c": 1.0, "pop": 19020, "cpop": 3400, "lat": 33.5516, "lon": -83.1634, "tsys": 67.3, "pw": "direct", "name": "Greene County", "st": "GA"}, "13135": {"bei": 17.9, "bp": 7.9, "t": 0.01, "s": 0.08, "p": 0.03, "c": 0.6, "pop": 957977, "cpop": 252386, "lat": 33.9547, "lon": -84.0516, "tsys": 27.8, "pw": "direct", "name": "Gwinnett County", "st": "GA"}, "13137": {"bei": 55.3, "bp": 31.2, "t": 0.11, "s": 0.89, "p": 0.23, "c": 1.0, "pop": 46326, "cpop": 10230, "lat": 34.5683, "lon": -83.5381, "tsys": 74.7, "pw": "direct", "name": "Habersham County", "st": "GA"}, "13139": {"bei": 47.5, "bp": 22.2, "t": 0.06, "s": 0.73, "p": 0.12, "c": 1.0, "pop": 204953, "cpop": 50269, "lat": 34.2705, "lon": -83.8487, "tsys": 50.5, "pw": "direct", "name": "Hall County", "st": "GA"}, "13141": {"bei": 55.8, "bp": 32.6, "t": 0.09, "s": 1.0, "p": 0.15, "c": 1.0, "pop": 8588, "cpop": 1160, "lat": 33.2715, "lon": -82.9921, "tsys": 64.9, "pw": "direct", "name": "Hancock County", "st": "GA"}, "13143": {"bei": 39.3, "bp": 17.5, "t": 0.07, "s": 0.83, "p": 0.07, "c": 0.6, "pop": 30178, "cpop": 7175, "lat": 33.7647, "lon": -85.195, "tsys": 54.3, "pw": "direct", "name": "Haralson County", "st": "GA"}, "13145": {"bei": 57.9, "bp": 40.2, "t": 0.16, "s": 0.93, "p": 0.25, "c": 1.0, "pop": 34914, "cpop": 7448, "lat": 32.6937, "lon": -84.8983, "tsys": 94.4, "pw": "direct", "name": "Harris County", "st": "GA"}, "13147": {"bei": 59.6, "bp": 47.6, "t": 0.19, "s": 0.96, "p": 0.25, "c": 1.0, "pop": 26110, "cpop": 5395, "lat": 34.3504, "lon": -82.9605, "tsys": 107.4, "pw": "direct", "name": "Hart County", "st": "GA"}, "13149": {"bei": 55.6, "bp": 32.1, "t": 0.1, "s": 1.0, "p": 0.13, "c": 1.0, "pop": 11489, "cpop": 2619, "lat": 33.2947, "lon": -85.1072, "tsys": 67.8, "pw": "direct", "name": "Heard County", "st": "GA"}, "13151": {"bei": 24.8, "bp": 10.5, "t": 0.02, "s": 0.35, "p": 0.02, "c": 0.6, "pop": 240853, "cpop": 60622, "lat": 33.4699, "lon": -84.1735, "tsys": 30.9, "pw": "direct", "name": "Henry County", "st": "GA"}, "13153": {"bei": 59.1, "bp": 45.3, "t": 0.16, "s": 0.93, "p": 0.31, "c": 1.0, "pop": 164117, "cpop": 41717, "lat": 32.5646, "lon": -83.663, "tsys": 96.1, "pw": "direct", "name": "Houston County", "st": "GA"}, "13155": {"bei": 90.6, "bp": 85.8, "t": 1.0, "s": 1.0, "p": 0.53, "c": 1.0, "pop": 9487, "cpop": 2083, "lat": 31.5949, "lon": -83.2656, "tsys": 480.0, "pw": "transfer", "name": "Irwin County", "st": "GA"}, "13157": {"bei": 48.6, "bp": 22.9, "t": 0.07, "s": 0.74, "p": 0.14, "c": 1.0, "pop": 77033, "cpop": 19388, "lat": 34.1293, "lon": -83.5981, "tsys": 55.9, "pw": "direct", "name": "Jackson County", "st": "GA"}, "13159": {"bei": 54.1, "bp": 28.2, "t": 0.08, "s": 0.96, "p": 0.12, "c": 1.0, "pop": 14882, "cpop": 3449, "lat": 33.3482, "lon": -83.7189, "tsys": 61.3, "pw": "direct", "name": "Jasper County", "st": "GA"}, "13161": {"bei": 68.0, "bp": 66.7, "t": 0.33, "s": 1.0, "p": 0.4, "c": 1.0, "pop": 14791, "cpop": 3844, "lat": 31.8569, "lon": -82.5962, "tsys": 172.9, "pw": "direct", "name": "Jeff Davis County", "st": "GA"}, "13163": {"bei": 22.6, "bp": 9.7, "t": 0.06, "s": 0.78, "p": 0.07, "c": 0.0, "pop": 15591, "cpop": 3630, "lat": 33.0633, "lon": -82.4095, "tsys": 49.5, "pw": "direct", "name": "Jefferson County", "st": "GA"}, "13165": {"bei": 55.3, "bp": 31.1, "t": 0.09, "s": 1.0, "p": 0.12, "c": 1.0, "pop": 8704, "cpop": 1623, "lat": 32.8065, "lon": -81.9572, "tsys": 65.0, "pw": "direct", "name": "Jenkins County", "st": "GA"}, "13167": {"bei": 58.5, "bp": 42.8, "t": 0.16, "s": 1.0, "p": 0.19, "c": 1.0, "pop": 9225, "cpop": 1665, "lat": 32.7163, "lon": -82.6825, "tsys": 94.7, "pw": "direct", "name": "Johnson County", "st": "GA"}, "13169": {"bei": 55.8, "bp": 32.6, "t": 0.15, "s": 0.88, "p": 0.23, "c": 1.0, "pop": 28382, "cpop": 6398, "lat": 32.9702, "lon": -83.5502, "tsys": 89.0, "pw": "direct", "name": "Jones County", "st": "GA"}, "13171": {"bei": 53.9, "bp": 27.9, "t": 0.08, "s": 0.96, "p": 0.13, "c": 1.0, "pop": 18676, "cpop": 3873, "lat": 33.0768, "lon": -84.1544, "tsys": 56.9, "pw": "direct", "name": "Lamar County", "st": "GA"}, "13173": {"bei": 93.2, "bp": 89.8, "t": 1.0, "s": 1.0, "p": 0.66, "c": 1.0, "pop": 9964, "cpop": 2266, "lat": 31.0435, "lon": -83.0835, "tsys": 480.0, "pw": "transfer", "name": "Lanier County", "st": "GA"}, "13175": {"bei": 61.7, "bp": 54.2, "t": 0.21, "s": 1.0, "p": 0.27, "c": 1.0, "pop": 49407, "cpop": 12138, "lat": 32.517, "lon": -82.9271, "tsys": 120.0, "pw": "direct", "name": "Laurens County", "st": "GA"}, "13177": {"bei": 90.3, "bp": 85.0, "t": 1.0, "s": 1.0, "p": 0.51, "c": 1.0, "pop": 32968, "cpop": 8628, "lat": 31.6916, "lon": -84.1682, "tsys": 480.0, "pw": "transfer", "name": "Lee County", "st": "GA"}, "13179": {"bei": 87.1, "bp": 78.2, "t": 1.0, "s": 0.96, "p": 0.4, "c": 1.0, "pop": 65550, "cpop": 18049, "lat": 31.8325, "lon": -81.5736, "tsys": 480.0, "pw": "transfer", "name": "Liberty County", "st": "GA"}, "13181": {"bei": 17.2, "bp": 7.8, "t": 0.05, "s": 0.59, "p": 0.05, "c": 0.0, "pop": 7726, "cpop": 1491, "lat": 33.7868, "lon": -82.4493, "tsys": 44.1, "pw": "direct", "name": "Lincoln County", "st": "GA"}, "13183": {"bei": 87.7, "bp": 79.4, "t": 1.0, "s": 0.96, "p": 0.43, "c": 1.0, "pop": 16804, "cpop": 4615, "lat": 31.7335, "lon": -81.7603, "tsys": 480.0, "pw": "transfer", "name": "Long County", "st": "GA"}, "13185": {"bei": 69.6, "bp": 68.4, "t": 0.17, "s": 1.0, "p": 0.72, "c": 1.0, "pop": 118257, "cpop": 28595, "lat": 30.8655, "lon": -83.2794, "tsys": 101.8, "pw": "direct", "name": "Lowndes County", "st": "GA"}, "13187": {"bei": 52.6, "bp": 25.9, "t": 0.1, "s": 0.85, "p": 0.17, "c": 1.0, "pop": 33405, "cpop": 5755, "lat": 34.5372, "lon": -83.9916, "tsys": 67.3, "pw": "direct", "name": "Lumpkin County", "st": "GA"},